{"distance": 999999999, "ground_truth": {"country": "Romania", "city": "Maramures", "neighborhood": "Gherta Mica", "exact_location_name": "", "latitude": "47.93673312141987", "longitude": "23.22130934098346"}, "revealed": {"country": "", "city": "", "neighborhood": "", "exact_location_name": ""}, "image_id": "120272017"}
{"points": [[34.07574, -117.78183], [46.294813, -93.826], [39.908099, -79.743362], [36.128001, -81.22016], [42.534508, -70.872109]], "confidences": [0.010000000000000002, 0.0125, 0, 0, 0], "centroid": [41.491394742762616, -105.54968867237444], "distance": 2669.1699428002808, "ground_truth": {"country": "United States", "city": "Norwalk, Connecticut", "neighborhood": "Sono, South Norwalk", "exact_location_name": "Tablao Wine Bar and Restaurant", "latitude": "41.09905057103837", "longitude": "-73.4176908228421"}, "revealed": {"country": "United States", "city": "Norwalk, CT", "neighborhood": "South Norwalk", "exact_location_name": "Tablao Wine Bar & Restaurant"}, "image_id": "1746203696"}
{"points": [[8.063749, 98.915495], [8.05733, 98.9114], [8.05, 98.91], [8.0523, 98.9116], [8.02983, 98.86206]], "confidences": [0.81, 0.7290000000000001, 0.7290000000000001, 0.6561000000000001, 0.5], "centroid": [8.052308813080025, 98.90490372495414], "distance": 69.68995496384296, "ground_truth": {"country": "Thailand", "city": "Phuket", "neighborhood": "Kathu District", "exact_location_name": "Dragon Market", "latitude": "7.883628978091936", "longitude": "98.29540826649459"}, "revealed": {"country": "Thailand", "city": "Krabi", "neighborhood": "Ao Nang", "exact_location_name": ""}, "image_id": "1280799814"}
{"points": [[55.3429214, -131.6434567], [55.3424439, -131.6419], [55.342409, -131.642031]], "confidences": [0, 0, 0], "centroid": [55.34259143536215, -131.64246256254518], "distance": 0.012236217576055588, "ground_truth": {"country": "United States", "city": "Ketchikan, Alaska", "neighborhood": "", "exact_location_name": "Creek Street", "latitude": "55.34254926180117", "longitude": "-131.6422838279352"}, "revealed": {"country": "Alaska", "city": "Ketchikan", "neighborhood": "", "exact_location_name": "Creek Street"}, "image_id": "557056861"}
{"distance": 999999999, "ground_truth": {"country": "United States", "city": "Nashville, Tennessee", "neighborhood": "", "exact_location_name": "Broadway St", "latitude": "36.16142622342059", "longitude": "-86.77623064676544"}, "revealed": {"country": "", "city": "", "neighborhood": "", "exact_location_name": ""}, "image_id": "1444015241"}
{"distance": 999999999, "ground_truth": {"country": "Lithuania", "city": "Vilnius", "neighborhood": "Vilnius Old Town", "exact_location_name": "Vilnius Cathedral", "latitude": "54.68584328810577", "longitude": "25.2881421718804"}, "revealed": {"country": "", "city": "", "neighborhood": "", "exact_location_name": ""}, "image_id": "1202756137"}
{"points": [[40.262259, -82.883453], [40.100754, -80.619065], [37.479077, -86.85317], [38.948143, -84.954441]], "confidences": [0, 0, 0, 0], "centroid": [39.220777329679336, -83.86079615763467], "distance": 110.41885905015342, "ground_truth": {"country": "United States", "city": "Columbus, Ohio", "neighborhood": "Scotio River", "exact_location_name": "Discovery Bridge", "latitude": "39.962418199300885", "longitude": "-83.00385567285008"}, "revealed": {"country": "United States", "city": "Columbus, OH", "neighborhood": "Downtown", "exact_location_name": "Main Street Bridge"}, "image_id": "1756558634"}
{"points": [[61.0666922, -107.991707]], "confidences": [1], "centroid": [61.0666922, -107.991707], "distance": 2729.320083190758, "ground_truth": {"country": "Canada", "city": "Cobourg", "neighborhood": "", "exact_location_name": "City Streaks", "latitude": "43.95974758179526", "longitude": "-78.16704174879946"}, "revealed": {"country": "Canada", "city": "", "neighborhood": "", "exact_location_name": ""}, "image_id": "2172610585"}
{"points": [[35.166842, -106.584602], [35.183388, -106.578521], [35.2009793, -106.5872069], [35.2005684, -106.5969649], [35.1975581, -106.5174346]], "confidences": [0.81, 0.81, 0.45, 0.45, 0.45], "centroid": [35.186293452422866, -106.575035467713], "distance": 1.645314725293159, "ground_truth": {"country": "United States", "city": "Albuquerque, New Mexico", "neighborhood": "North Valley", "exact_location_name": "Balloon Fiesta Park", "latitude": "35.196508488208586", "longitude": "-106.58813442916608"}, "revealed": {"country": "United States", "city": "Albuquerque", "neighborhood": "North Albuquerque", "exact_location_name": "Balloon Fiesta Park"}, "image_id": "1985114579"}
{"points": [[46.2202037, 24.7934483]], "confidences": [0.25], "centroid": [46.2202037, 24.793448300000005], "distance": 0.06176965506396581, "ground_truth": {"country": "Romania", "city": "Sighisoara", "neighborhood": "Old Town", "exact_location_name": "Casa Vlad Dracul", "latitude": "46.21965051972754", "longitude": "24.793374879259105"}, "revealed": {"country": "Romania", "city": "Sighi\u0219oara", "neighborhood": "", "exact_location_name": "Casa Vlad Dracul Terasa"}, "image_id": "1678344529"}
{"points": [[42.963886, -85.640622], [39.66634, -75.600944], [37.368357, -121.877357], [31.176788, -83.765956], [31.425043, -83.498598]], "confidences": [0, 0, 0, 0, 0], "centroid": [37.61946466462987, -89.7489314290315], "distance": 1514.5181225925367, "ground_truth": {"country": "United States", "city": "Basalt, Colorado", "neighborhood": "", "exact_location_name": "Basalt Sunday Market", "latitude": "39.36888289669152", "longitude": "-107.03470201870219"}, "revealed": {"country": "United States", "city": "Carbondale, CO", "neighborhood": "", "exact_location_name": "Carbondale Farmers' Market"}, "image_id": "1502573489"}
{"points": [[40.753204, -111.817234]], "confidences": [1], "centroid": [40.753204, -111.817234], "distance": 0.11727922944357345, "ground_truth": {"country": "United States", "city": "Salt Lake City, Utah", "neighborhood": "University of Utah", "exact_location_name": "This is the Place Heritage Park/Monument", "latitude": "40.7521720040838", "longitude": "-111.81694655955143"}, "revealed": {"country": "United States", "city": "Salt Lake City", "neighborhood": "This Is The Place Heritage Park", "exact_location_name": "This Is The Place Monument"}, "image_id": "2200195765"}
{"points": [[47.615045, -122.320801], [47.6150454, -122.3208011], [37.797876, -122.407371], [37.797846, -122.406347], [37.798142, -122.406915]], "confidences": [0.3, 0.3, 0, 0, 0], "centroid": [47.6150452, -122.32080105000001], "distance": 1577.6888303959054, "ground_truth": {"country": "United States", "city": "Long Beach, California", "neighborhood": "downtown", "exact_location_name": "Pine Avenue", "latitude": "33.770516225886624", "longitude": "-118.19240824178988"}, "revealed": {"country": "United States", "city": "Long Beach, CA", "neighborhood": "", "exact_location_name": "Broadway and Pine Avenue"}, "image_id": "1637787475"}
{"distance": 999999999, "ground_truth": {"country": "United States", "city": "Tampa", "neighborhood": "Ybor City", "exact_location_name": "", "latitude": "27.996445297588757", "longitude": "-82.43898689731925"}, "revealed": {"country": "", "city": "", "neighborhood": "Downtown", "exact_location_name": ""}, "image_id": "2060488949"}
{"distance": 999999999, "ground_truth": {"country": "USA", "city": "Kentucky", "neighborhood": "Corbin", "exact_location_name": "First KFC", "latitude": "36.96005488351659", "longitude": "-84.09393681142852"}, "revealed": {"country": "", "city": "", "neighborhood": "", "exact_location_name": ""}, "image_id": "713046427"}
{"distance": 999999999, "ground_truth": {"country": "Brazil", "city": "Sao Paulo", "neighborhood": "", "exact_location_name": "Butanta", "latitude": "-23.572299", "longitude": "-46.708081"}, "revealed": {"country": "", "city": "", "neighborhood": "", "exact_location_name": ""}, "image_id": "375716575"}
{"points": [[38.7077507, -9.1365919]], "confidences": [1], "centroid": [38.7077507, -9.1365919], "distance": 261.8460443515141, "ground_truth": {"country": "Portugal", "city": "Lisbon", "neighborhood": "Principe Real", "exact_location_name": "", "latitude": "41.05555064620908", "longitude": "-9.373722556922846"}, "revealed": {"country": "Portugal", "city": "Lisbon", "neighborhood": "", "exact_location_name": ""}, "image_id": "255728641"}
{"points": [[44.8178131, 20.4568974]], "confidences": [0.25], "centroid": [44.8178131, 20.4568974], "distance": 0.3441872583893941, "ground_truth": {"country": "Serbia", "city": "Belgrade", "neighborhood": "Stari Grad", "exact_location_name": "Republic Square", "latitude": "44.81620970253864", "longitude": "20.460629910322893"}, "revealed": {"country": "Serbia", "city": "Belgrade", "neighborhood": "", "exact_location_name": "Republic Square (Trg Republike)"}, "image_id": "1809375037"}
{"distance": 999999999, "ground_truth": {"country": "New Zealand", "city": "Rotorua", "neighborhood": "", "exact_location_name": "", "latitude": "-38.13388982740474", "longitude": "176.2575525330391"}, "revealed": {"country": "", "city": "", "neighborhood": "", "exact_location_name": ""}, "image_id": "1855156174"}
{"distance": 999999999, "ground_truth": {"country": "Iran", "city": "Isfahan", "neighborhood": "", "exact_location_name": "Si-o-Se Pol Bridge", "latitude": "32.64456331839465", "longitude": "51.66822844397424"}, "revealed": {"country": "", "city": "", "neighborhood": "", "exact_location_name": ""}, "image_id": "2379854663"}
{"distance": 999999999, "ground_truth": {"country": "USA", "city": "Huntsville", "neighborhood": "", "exact_location_name": " U.S. Space & Rocket Center ", "latitude": "34.71105175704378", "longitude": "-86.65289939281267"}, "revealed": {"country": "", "city": "", "neighborhood": "", "exact_location_name": ""}, "image_id": "1671189943"}
{"points": [[30.7334421, 76.7797143], [27.6117269, 76.837424]], "confidences": [1, 1], "centroid": [29.17258759171153, 76.80900808305225], "distance": 170.22552913629457, "ground_truth": {"country": "India", "city": "Chandigarh", "neighborhood": "Daria", "exact_location_name": "Chandigarh railway station", "latitude": "30.703435783357406", "longitude": "76.81945616944283"}, "revealed": {"country": "India", "city": "Chandigarh", "neighborhood": "", "exact_location_name": ""}, "image_id": "2247697261"}
{"points": [[21.1618955, -86.8514988]], "confidences": [1], "centroid": [21.1618955, -86.8514988], "distance": 11.25211857408417, "ground_truth": {"country": "Mexico", "city": "Cancun", "neighborhood": "Hotel zone", "exact_location_name": "Coco Bongo", "latitude": "21.132579674193234", "longitude": "-86.74765214278449"}, "revealed": {"country": "Mexico", "city": "Cancun", "neighborhood": "", "exact_location_name": ""}, "image_id": "248239060"}
{"points": [[-1.2560641, 29.9905385], [0.55, 32.4], [-0.5, 31.733333], [1.766667, 33.433333], [1.6343642, 31.4878895]], "confidences": [1, 1, 1, 1, 1], "centroid": [0.43909579250974595, 31.80898881273654], "distance": 276.5501408214765, "ground_truth": {"country": "Uganda", "city": "Kabale", "neighborhood": "Kabale main street", "exact_location_name": "Shifa Chemists", "latitude": "-1.2589243600310476", "longitude": "29.99166075514613"}, "revealed": {"country": "Uganda", "city": "Kabale", "neighborhood": "", "exact_location_name": ""}, "image_id": "699139504"}
{"points": [[46.0634632, 13.2358377]], "confidences": [0.25], "centroid": [46.0634632, 13.235837700000001], "distance": 342.8002041202851, "ground_truth": {"country": "Italy", "city": "Pisa", "neighborhood": "", "exact_location_name": "", "latitude": "43.723741437310075", "longitude": "10.401213811327553"}, "revealed": {"country": "Italy", "city": "Udine", "neighborhood": "", "exact_location_name": "Piazza Contarena"}, "image_id": "681726940"}
{"distance": 999999999, "ground_truth": {"country": "Kazakhstan", "city": "Petropavl", "neighborhood": "Petropavl", "exact_location_name": "Garden of the City House of Culture", "latitude": "54.86179911157005", "longitude": "69.18255295632382"}, "revealed": {"country": "", "city": "", "neighborhood": "", "exact_location_name": ""}, "image_id": "617431418"}
{"points": [[42.6415, 18.10728], [42.642247, 18.107344], [43.907541, 16.396237], [45.32586395, 14.44568044684463], [45.325866, 14.445681]], "confidences": [0, 0, 0, 0, 0], "centroid": [43.980289087309586, 16.333597482889832], "distance": 206.74929707998498, "ground_truth": {"country": "Croatia", "city": "Dubrovnik", "neighborhood": "", "exact_location_name": "Onofrio's Fountain", "latitude": "42.641670007925335", "longitude": "18.107241753242747"}, "revealed": {"country": "Croatia", "city": "Dubrovnik", "neighborhood": "Dubrovnik's Old Town", "exact_location_name": "Onofrio's Fountain"}, "image_id": "187620461"}
{"distance": 999999999, "ground_truth": {"country": "Japan", "city": "Tokyo", "neighborhood": "Chiyoda City", "exact_location_name": "Yodobashi Akiba ", "latitude": "35.69943533199979", "longitude": "139.77527680457166"}, "revealed": {"country": "", "city": "", "neighborhood": "", "exact_location_name": ""}, "image_id": "1214342173"}
{"distance": 999999999, "ground_truth": {"country": "United States", "city": "PHILADELPHIA", "neighborhood": "Fairmount Park", "exact_location_name": "Rocky Statue", "latitude": "39.96518007709406", "longitude": "-75.17925931792665"}, "revealed": {"country": "", "city": "", "neighborhood": " Philadelphia Museum of Art", "exact_location_name": "The Rocky Statue"}, "image_id": "1247684770"}
{"distance": 999999999, "ground_truth": {"country": "United States", "city": "Tulsa, Oklahoma", "neighborhood": "Mayo Meadow", "exact_location_name": "The Golden Driller @ Tulsa Expo Center", "latitude": "36.13414928647753", "longitude": "-95.93127648416336"}, "revealed": {"country": "", "city": "", "neighborhood": "", "exact_location_name": ""}, "image_id": "2254064865"}
{"distance": 999999999, "ground_truth": {"country": "United States", "city": "Boston", "neighborhood": "Back Bay", "exact_location_name": "Boston Marathon Finish Line", "latitude": "42.34993919487396", "longitude": "-71.07829715162069"}, "revealed": {"country": "", "city": "", "neighborhood": "", "exact_location_name": ""}, "image_id": "28928515"}
{"distance": 999999999, "ground_truth": {"country": "Germany", "city": "Rothenburg ob der Tauber", "neighborhood": "", "exact_location_name": "Bezoldweg", "latitude": "49.38096856078939", "longitude": "10.18411441307373"}, "revealed": {"country": "", "city": "", "neighborhood": "", "exact_location_name": ""}, "image_id": "83524039"}
{"distance": 999999999, "ground_truth": {"country": "United States", "city": "Charlotte", "neighborhood": "First Ward", "exact_location_name": "Charlotte Rail Trail", "latitude": "35.22581671345558", "longitude": "-80.84031360086263"}, "revealed": {"country": "", "city": "", "neighborhood": "", "exact_location_name": ""}, "image_id": "1016875066"}
{"distance": 999999999, "ground_truth": {"country": "United States", "city": "Cleveland", "neighborhood": "Downtown", "exact_location_name": "Rock and Roll Hall of Fame", "latitude": "41.50828165753982", "longitude": "-81.69448920801844"}, "revealed": {"country": "", "city": "", "neighborhood": "", "exact_location_name": ""}, "image_id": "1548419126"}
{"distance": 999999999, "ground_truth": {"country": "United States", "city": "Milwaukee, Wisconsin", "neighborhood": "downtown", "exact_location_name": "Milwaukee Public Market", "latitude": "43.03544938164579", "longitude": "-87.90647991252986"}, "revealed": {"country": "", "city": "", "neighborhood": "", "exact_location_name": ""}, "image_id": "2165339029"}
{"distance": 999999999, "ground_truth": {"country": "Switzerland", "city": "Lucerne", "neighborhood": "", "exact_location_name": "Dying Lion Monument", "latitude": "47.058617939400385", "longitude": "8.31137803761662"}, "revealed": {"country": "", "city": "", "neighborhood": "Old Town", "exact_location_name": ""}, "image_id": "2325643451"}
{"points": [[41.006381, 28.9758715]], "confidences": [0.25], "centroid": [41.006381, 28.975871499999997], "distance": 0.13547654260773623, "ground_truth": {"country": "Turkiye", "city": "Istanbul", "neighborhood": "Sultanahmet", "exact_location_name": "Blue Mosque", "latitude": "41.00536180049531", "longitude": "28.97675612535281"}, "revealed": {"country": "Turkey", "city": "Istanbul", "neighborhood": "", "exact_location_name": "Sultan Ahmed Mosque"}, "image_id": "191040608"}
{"distance": 999999999, "ground_truth": {"country": "United States", "city": "Hartford, Connecticut", "neighborhood": "downtown Hartford", "exact_location_name": "", "latitude": "41.7646571598249", "longitude": "-72.6814003796757"}, "revealed": {"country": "", "city": "", "neighborhood": "", "exact_location_name": ""}, "image_id": "1155430582"}
{"points": [[46.879581, -96.787875], [42.92645, -78.43641], [46.867513, -96.82287], [30.68188, -82.56652], [36.374288, -99.621954]], "confidences": [0.5103, 0.225, 0.225, 0.225, 0.225], "centroid": [42.28731819881235, -91.76236285386253], "distance": 646.9999753068561, "ground_truth": {"country": "United States", "city": "Fargo, North Dakota", "neighborhood": "downtown", "exact_location_name": "Fargo Theare", "latitude": "46.88026056177055", "longitude": "-96.78407303803846"}, "revealed": {"country": "United States", "city": "Fargo, ND", "neighborhood": "Downtown", "exact_location_name": "Fargo Theatre"}, "image_id": "1728169420"}
{"points": [[6.083266, -75.335294], [5.412804449999999, -74.99222932693164], [6.0832817, -75.33529000545695], [9.72091, -75.109745], [10.423217, -75.551299]], "confidences": [0.15384615384615385, 0.14705882352941177, 0.06666666666666667, 0.052919999999999995, 0], "centroid": [6.306377772928973, -75.1869322306756], "distance": 41.98674797623879, "ground_truth": {"country": "Colombia", "city": "Medellin", "neighborhood": "La Candelaria", "exact_location_name": "", "latitude": "6.2534447659324615", "longitude": "-75.5630565351452"}, "revealed": {"country": "Colombia", "city": "Medell\u00edn", "neighborhood": "Parque de Bol\u00edvar", "exact_location_name": "Monument to Sim\u00f3n Bol\u00edvar"}, "image_id": "1148736884"}
{"distance": 999999999, "ground_truth": {"country": "United States", "city": "Austin, Texas", "neighborhood": "Downtown", "exact_location_name": "Texas Capitol", "latitude": "30.27482269025831", "longitude": "-97.73989989258178"}, "revealed": {"country": "", "city": "", "neighborhood": "", "exact_location_name": ""}, "image_id": "2167943599"}
{"points": [[35.5886349, -82.5012627], [35.5783411, -82.58849085711634], [35.5965525, -82.57308103939022], [35.5762777, -82.5626504], [35.596479, -82.572967]], "confidences": [0.19845, 0.11764705882352941, 0.14705882352941177, 0.25, 0.14705882352941177], "centroid": [35.58633422697778, -82.55556960539327], "distance": 5.018051478648149, "ground_truth": {"country": "United States", "city": "Asheville, North Carolina", "neighborhood": "BIltmore", "exact_location_name": "Biltmore Estate", "latitude": "35.54247756522782", "longitude": "-82.54249213603079"}, "revealed": {"country": "United States", "city": "Asheville", "neighborhood": "Southern Asheville", "exact_location_name": "Biltmore Estate, 1 Lodge Street"}, "image_id": "1110626339"}
{"distance": 999999999, "ground_truth": {"country": "Bosnia and Herzegovina", "city": "Mostar", "neighborhood": "", "exact_location_name": "Mostar Old Bridge", "latitude": "43.33745528724931", "longitude": "17.815531018751376"}, "revealed": {"country": "", "city": "", "neighborhood": "", "exact_location_name": ""}, "image_id": "1734506378"}
{"distance": 999999999, "ground_truth": {"country": "Australia", "city": "Petermann, Northern Territory", "neighborhood": "The Olmas", "exact_location_name": "Walpa Gorge", "latitude": "-25.299451566972962", "longitude": "130.73261438020657"}, "revealed": {"country": "", "city": "", "neighborhood": "", "exact_location_name": ""}, "image_id": "361077104"}
{"points": [[23.138664, -82.375262], [23.1383762, -82.3767106], [23.1386813, -82.3753881], [23.1386641, -82.3752619], [23.138571, -82.375716]], "confidences": [0.05555555555555555, 0.05555555555555555, 0.05555555555555555, 0.05555555555555555, 0.05555555555555555], "centroid": [23.13859132094437, -82.37566772046166], "distance": 260.28555855665746, "ground_truth": {"country": "Cuba", "city": "Santa Clara", "neighborhood": "", "exact_location_name": "", "latitude": "22.405751910081666", "longitude": "-79.96454509531249"}, "revealed": {"country": "", "city": "", "neighborhood": "Cayo Hueso", "exact_location_name": "Callej\u00f3n de Hamel"}, "image_id": "214378558"}
{"points": [[38.7851606, -77.0171924], [38.6516108, -90.57112286310984], [61.5828641, -149.4388452640411], [40.2331847, -74.7202078], [51.5290639, -0.1511355]], "confidences": [0, 0, 0, 0, 0], "centroid": [53.99358965070044, -77.02273330644557], "distance": 1487.4510057317052, "ground_truth": {"country": "United States", "city": "New York City", "neighborhood": "Manhatten Upper West Side", "exact_location_name": "Lincoln Center", "latitude": "40.77295114490602", "longitude": "-73.98001280145675"}, "revealed": {"country": "", "city": "", "neighborhood": "", "exact_location_name": "The Awakening"}, "image_id": "1504403426"}
{"points": [[45.827469, 15.977287], [45.818213, 15.977292]], "confidences": [0.25, 0.25], "centroid": [45.822841000000025, 15.97728950020782], "distance": 0.8043499793812215, "ground_truth": {"country": "Croatia", "city": "Zagreb", "neighborhood": "", "exact_location_name": "St. Mark's Church", "latitude": "45.81603228421191", "longitude": "15.973784245190991"}, "revealed": {"country": "Croatia", "city": "Zagreb", "neighborhood": " Upper Town (Gornji Grad)", "exact_location_name": "St. Mark's Church in St. Mark's Square"}, "image_id": "1144222085"}
{"points": [[50.4500336, 30.5241361], [47.8671228, 31.0179572]], "confidences": [0.25, 0.25], "centroid": [49.158841233079215, 30.77748594325504], "distance": 142.89649375663845, "ground_truth": {"country": "Ukraine", "city": "Kyiv", "neighborhood": "", "exact_location_name": "National Olympic Stadium (NSC Olimpiysky) in Kyiv", "latitude": "50.43287871941206", "longitude": "30.5168125650924"}, "revealed": {"country": "Ukraine", "city": "Kyiv", "neighborhood": "", "exact_location_name": "Olimpiyskiy National Sports Complex"}, "image_id": "501411259"}
{"distance": 999999999, "ground_truth": {"country": "USA", "city": "Arizona", "neighborhood": "Hackberry", "exact_location_name": "Hackberry General Store", "latitude": "35.3750275068579", "longitude": "-113.72276628471433"}, "revealed": {"country": "", "city": "Seligman, Arizona", "neighborhood": "", "exact_location_name": "Historic Seligman Sundries"}, "image_id": "2398547553"}
{"distance": 999999999, "ground_truth": {"country": "Japan", "city": "Yokohama", "neighborhood": "Naka Ward", "exact_location_name": "Sky Duck", "latitude": "35.453893", "longitude": "139.635030"}, "revealed": {"country": "Japan", "city": "Yokohama", "neighborhood": "Ooka River, Yokohama waterfront", "exact_location_name": "Yokohama Red Brick Warehouse"}, "image_id": "507082300"}
{"distance": 999999999, "ground_truth": {"country": "Thailand", "city": "Bangkok", "neighborhood": "Phra Nakhon", "exact_location_name": "Khao San Road", "latitude": "13.760004165654482", "longitude": "100.49785855763724"}, "revealed": {"country": "", "city": "", "neighborhood": "", "exact_location_name": ""}, "image_id": "766789852"}
{"points": [[42.3655767, -71.1040018], [42.38036, -71.115987], [42.243319, -71.811687], [42.363359, -71.085932]], "confidences": [0.5, 0.5, 0.5, 0.5], "centroid": [42.33856490120761, -71.27966670770029], "distance": 13.750558967616088, "ground_truth": {"country": "United States", "city": "Cambridge", "neighborhood": "Harvard University", "exact_location_name": "Harvard Square", "latitude": "42.373453141729435", "longitude": "-71.1191218479589"}, "revealed": {"country": "United States", "city": "Cambridge, Massachusetts", "neighborhood": "", "exact_location_name": ""}, "image_id": "1007459842"}
{"distance": 999999999, "ground_truth": {"country": "United States", "city": "Philadelphia", "neighborhood": "Seventh Ward", "exact_location_name": "South Street", "latitude": "39.942155309956306", "longitude": "-75.15577847147762"}, "revealed": {"country": "", "city": "", "neighborhood": "", "exact_location_name": ""}, "image_id": "61078000"}
{"points": [[41.9497837, -87.6590034], [41.9498495, -87.65895863378384]], "confidences": [0.9, 0.9], "centroid": [41.949816600002166, -87.65898101690347], "distance": 0.05498738251679042, "ground_truth": {"country": "United States", "city": "Chicago", "neighborhood": "Lakeview", "exact_location_name": "The Metro", "latitude": "41.94991390289217", "longitude": "-87.65832910560266"}, "revealed": {"country": "USA", "city": "Chicago, IL", "neighborhood": "", "exact_location_name": "Metro"}, "image_id": "1357257488"}
{"distance": 999999999, "ground_truth": {"country": "United States", "city": "Portland, Oregon", "neighborhood": "Downtown", "exact_location_name": "City Hall", "latitude": "45.515019253393184", "longitude": "-122.67972816965916"}, "revealed": {"country": "", "city": "", "neighborhood": "", "exact_location_name": ""}, "image_id": "59433685"}
{"points": [[59.4556412, -135.3116103], [59.454749, -135.291742], [59.6226362, -135.4094368], [59.4532881, -135.3180657], [59.557353, -135.343312]], "confidences": [0.5, 0.5, 0.5, 0.5, 0], "centroid": [59.4965864318606, -135.33261823384845], "distance": 4.806144657187772, "ground_truth": {"country": "United States", "city": "Skagway, Alaska", "neighborhood": "Downtown Skagway, Broadway Avenue", "exact_location_name": "", "latitude": "59.45397208543509", "longitude": "-135.31839076246743"}, "revealed": {"country": "United States", "city": "Skagway, Alaska", "neighborhood": "", "exact_location_name": ""}, "image_id": "1527880655"}
{"points": [[39.7837304, -100.445882]], "confidences": [1], "centroid": [39.7837304, -100.445882], "distance": 5761.484308799571, "ground_truth": {"country": "United States", "city": "Honolulu, Hawaii", "neighborhood": "", "exact_location_name": "Kapi\u02bbolani Regional Park", "latitude": "21.26692484656213", "longitude": "-157.81893599386368"}, "revealed": {"country": "United States", "city": "", "neighborhood": "", "exact_location_name": ""}, "image_id": "1081453934"}
{"distance": 999999999, "ground_truth": {"country": "United States", "city": "Birmingham, Alabama", "neighborhood": "Fountain Heights", "exact_location_name": "16th St Baptist Church", "latitude": "33.5170319118955", "longitude": "-86.81255014923883"}, "revealed": {"country": "", "city": "", "neighborhood": "", "exact_location_name": ""}, "image_id": "1794704176"}
{"distance": 999999999, "ground_truth": {"country": "Poland", "city": "LUBLIN", "neighborhood": "Old town", "exact_location_name": "\"Plac po Farze\" square", "latitude": "51.24874183716919", "longitude": "22.56926783201829"}, "revealed": {"country": "", "city": "", "neighborhood": "", "exact_location_name": ""}, "image_id": "1221633196"}
{"distance": 999999999, "ground_truth": {"country": "Bangladesh", "city": "Khulna", "neighborhood": "", "exact_location_name": "Majid Sarani", "latitude": "22.81937262207193", "longitude": "89.54830342491492"}, "revealed": {"country": "", "city": "", "neighborhood": "", "exact_location_name": ""}, "image_id": "1504007702"}
{"points": [[38.8950368, -77.0365427]], "confidences": [0.2025], "centroid": [38.89503680000001, -77.03654270000001], "distance": 2.7308890885460237, "ground_truth": {"country": "United States", "city": "Washington DC", "neighborhood": "", "exact_location_name": "Capitol Building", "latitude": "38.889822", "longitude": "-77.005708"}, "revealed": {"country": "United States", "city": "Washington, D.C", "neighborhood": "", "exact_location_name": "National Mall "}, "image_id": "2378186027"}
{"distance": 999999999, "ground_truth": {"country": "United States", "city": "New York", "neighborhood": "Soho", "exact_location_name": "Dominique Ansel Bakery", "latitude": "40.72525373047921", "longitude": "-74.00287437779816"}, "revealed": {"country": "", "city": "", "neighborhood": "", "exact_location_name": ""}, "image_id": "1974115379"}
{"distance": 999999999, "ground_truth": {"country": "United States", "city": "Minneapolis", "neighborhood": "Central", "exact_location_name": "", "latitude": "44.97889968577657", "longitude": "-93.26990142642684"}, "revealed": {"country": "", "city": "", "neighborhood": "", "exact_location_name": ""}, "image_id": "1413346727"}
{"distance": 999999999, "ground_truth": {"country": "Malaysia", "city": "Ipoh-Perak", "neighborhood": "Klebang Ria", "exact_location_name": "TGV Cinema Aeon Shopping Center", "latitude": "4.677901708989921", "longitude": "101.12239739485483"}, "revealed": {"country": "", "city": "", "neighborhood": "", "exact_location_name": ""}, "image_id": "1300380184"}
{"points": [[33.95158745, -84.54718053382844], [33.9515552, -84.5472223]], "confidences": [0.9, 0.9], "centroid": [33.951571325001765, -84.54720141691817], "distance": 0.046269387121741244, "ground_truth": {"country": "United States", "city": "Marietta, Georgia", "neighborhood": "", "exact_location_name": "Joe Mack Wilson Park", "latitude": "33.95175716848243", "longitude": "-84.54675259244992"}, "revealed": {"country": "United States", "city": "Marietta, GA", "neighborhood": "", "exact_location_name": "Joe Mack Wilson Park"}, "image_id": "2308293533"}
{"points": [[36.171018, -86.788238], [38.824058, -94.597656], [35.176439, 136.956449], [34.079695, -91.695042], [48.549031, 35.839016]], "confidences": [0.041666666666666664, 0.125, 0.13157894736842105, 0.08333333333333333, 0.08823529411764706], "centroid": [71.06323870544594, -113.07726888126355], "distance": 5171.180753847057, "ground_truth": {"country": "Russia", "city": "Saint Petersburg", "neighborhood": "Petrogradsky district", "exact_location_name": "State museum of the history of Saint Petersburg", "latitude": "59.94976967315261", "longitude": "30.31672181123562"}, "revealed": {"country": "", "city": "", "neighborhood": "Petrogradsky", "exact_location_name": " State Museum of the History of St. Petersburg"}, "image_id": "2315046925"}
{"points": [[39.7837304, -100.445882]], "confidences": [1], "centroid": [39.7837304, -100.445882], "distance": 2040.3276437191928, "ground_truth": {"country": "USA", "city": "Baltimore", "neighborhood": "Fells Point", "exact_location_name": "St. Michael the Archangel Roman Catholic Church", "latitude": "39.290495779348944", "longitude": "-76.59122697525082"}, "revealed": {"country": "United States", "city": "", "neighborhood": "", "exact_location_name": ""}, "image_id": "1198066141"}
{"distance": 999999999, "ground_truth": {"country": "United States", "city": "New Orleans", "neighborhood": "Central City", "exact_location_name": "", "latitude": "29.93958082634766", "longitude": "-90.08805549361988"}, "revealed": {"country": "", "city": "", "neighborhood": "Marigny ", "exact_location_name": ""}, "image_id": "1868134549"}
{"points": [[36.7099311, 67.1092145]], "confidences": [0.25], "centroid": [36.70993109999999, 67.1092145], "distance": 0.39118474992031266, "ground_truth": {"country": "Afghanistan", "city": "Mazar i-Sharif", "neighborhood": "", "exact_location_name": "Shrine of Hazrat Ali", "latitude": "36.70956832728455", "longitude": "67.11357943502473"}, "revealed": {"country": "Afghanistan", "city": "Mazar-i-Sharif", "neighborhood": "", "exact_location_name": "Shrine of Hazrat Ali"}, "image_id": "792395557"}
{"points": [[21.0283334, 105.854041]], "confidences": [1], "centroid": [21.028333400000005, 105.854041], "distance": 2.7237113387984877, "ground_truth": {"country": "Vietnam", "city": "Hanoi", "neighborhood": "West Lake, Tay Ho", "exact_location_name": "Memories Coffee", "latitude": "21.0490029214144", "longitude": "105.83995791377835"}, "revealed": {"country": "Vietnam", "city": "Hanoi", "neighborhood": "", "exact_location_name": ""}, "image_id": "2244449735"}
{"distance": 999999999, "ground_truth": {"country": "Australia", "city": "Perth", "neighborhood": "", "exact_location_name": "London Court", "latitude": "-31.955151634875797", "longitude": "115.85871831009426"}, "revealed": {"country": "", "city": "", "neighborhood": "CBD", "exact_location_name": ""}, "image_id": "391058833"}
{"points": [[11.568271, 104.9224426]], "confidences": [0.25], "centroid": [11.568271, 104.9224426], "distance": 752.9401183133272, "ground_truth": {"country": "Laos", "city": "Vientiane", "neighborhood": "Nongchan", "exact_location_name": "", "latitude": "17.96337966877376", "longitude": "102.61925819671022"}, "revealed": {"country": "Cambodia", "city": "Phnom Penh", "neighborhood": "", "exact_location_name": "Major Cineplex by Cellcard"}, "image_id": "1459780406"}
{"points": [[43.8577783, 18.4289012], [43.857778, 18.428901]], "confidences": [0.02571428571428571, 0], "centroid": [43.85777830000001, 18.4289012], "distance": 1293.0482586871497, "ground_truth": {"country": "Lithuania", "city": "Kaunas", "neighborhood": "", "exact_location_name": "Monument to commemorate the victims of Nazism", "latitude": "54.94383699254298", "longitude": "23.86826186072255"}, "revealed": {"country": "Bosnia and Herzegovina", "city": "Tjenti\u0161te ", "neighborhood": "Valley of the Heroes (Dolina Heroja)", "exact_location_name": "Monument to the Battle of the Sutjeska or Sutjeska Monument."}, "image_id": "1459410086"}
{"points": [[28.6137541, 77.2121337], [28.6131403, 77.2247644], [28.6140348, 77.206496], [28.6143264, 77.2001861], [28.61424955, 77.20180339999999]], "confidences": [0.5, 0.5, 0.5, 0.5, 0.5], "centroid": [28.61390131914198, 77.20907675623863], "distance": 1.5796801056598413, "ground_truth": {"country": "India", "city": "New Delhi", "neighborhood": "", "exact_location_name": "Rajpath", "latitude": "28.613115002615768", "longitude": "77.22523475823135"}, "revealed": {"country": "India", "city": "New Delhi", "neighborhood": "Rajpath", "exact_location_name": ""}, "image_id": "8696395"}
{"points": [[51.984067, 5.901587]], "confidences": [1], "centroid": [51.984066999999996, 5.901587], "distance": 1256.6885262392545, "ground_truth": {"country": "Spain", "city": "Zaragoza", "neighborhood": "", "exact_location_name": "Pavilion of Aragon", "latitude": "41.671078", "longitude": "-0.897720"}, "revealed": {"country": "Netherlands", "city": "", "neighborhood": "", "exact_location_name": "Arnhem Central Station"}, "image_id": "1488417635"}
{"points": [[40.75318, -73.98225], [40.7533445, -73.9821523605632], [40.753664, -73.981905], [40.112281, -75.134367], [39.949534, -75.198786]], "confidences": [0.5904900000000002, 0, 0, 0, 0], "centroid": [40.75318, -73.98225], "distance": 0.04212770181389861, "ground_truth": {"country": "United States", "city": "Manhattan, New York", "neighborhood": "Midtown West Manhattan", "exact_location_name": "New York Public Library", "latitude": "40.753287956119145", "longitude": "-73.98177060255432"}, "revealed": {"country": "United States", "city": "New York City", "neighborhood": "Manhattan", "exact_location_name": "Stephen A. Schwarzman Building"}, "image_id": "641892601"}
{"points": [[39.9417813, -75.1454205], [39.95462325, -75.14237765298707], [39.94621, -75.1434160886187], [39.952897, -75.145112], [39.9451907, -75.1448913]], "confidences": [0.22049999999999997, 0.16666666666666666, 0.125, 0.25, 0.08333333333333333], "centroid": [39.9485902405456, -75.14438102168026], "distance": 0.18956817630610573, "ground_truth": {"country": "United States", "city": "Philadelphia", "neighborhood": "Old City", "exact_location_name": "Old City Frozen Yogurt and Crepes", "latitude": "39.95029290168183", "longitude": "-75.14449309814506"}, "revealed": {"country": "United States", "city": "Philadelphia, PA", "neighborhood": "Old City", "exact_location_name": ""}, "image_id": "552371185"}
{"points": [[39.7837304, -100.445882]], "confidences": [1], "centroid": [39.7837304, -100.445882], "distance": 2174.1698663601474, "ground_truth": {"country": "USA", "city": "Port Jervis", "neighborhood": "", "exact_location_name": "Port Restaurant Equipment and Supplies", "latitude": "41.37325219518677", "longitude": "-74.69196827131694"}, "revealed": {"country": "United States", "city": "", "neighborhood": "", "exact_location_name": ""}, "image_id": "1444616150"}
{"points": [[41.006381, 28.9758715], [41.0284233, 28.9736808], [41.037778, 28.987812], [41.036202, 28.972923], [41.0339048, 28.9780952]], "confidences": [0.25, 0.25, 0.25, 0.125, 0], "centroid": [41.02590967750879, 28.978235417695178], "distance": 0.9278247698738868, "ground_truth": {"country": "Turkey", "city": "Istanbul", "neighborhood": "Kabatas, Beyoglu", "exact_location_name": "Cicek Pasaji", "latitude": "41.03425360936691", "longitude": "28.97831137900976"}, "revealed": {"country": "Turkey", "city": "Istanbul", "neighborhood": "Beyo\u011flu", "exact_location_name": "Cit\u00e9 de P\u00e9ra"}, "image_id": "2393486583"}
{"points": [[39.7837304, -100.445882]], "confidences": [1], "centroid": [39.7837304, -100.445882], "distance": 2414.0666333776157, "ground_truth": {"country": "United States", "city": "Lincoln, NH", "neighborhood": "", "exact_location_name": "", "latitude": "44.10965128914028", "longitude": "-71.68149384841524"}, "revealed": {"country": "United States", "city": "", "neighborhood": "", "exact_location_name": ""}, "image_id": "2292369373"}
{"points": [[46.7985624, 8.2319736]], "confidences": [1], "centroid": [46.7985624, 8.2319736], "distance": 67.89950593926348, "ground_truth": {"country": "Switzerland", "city": "Zurich", "neighborhood": "Lindenhof", "exact_location_name": "Augustinergasse", "latitude": "47.372229682752895", "longitude": "8.539273480066596"}, "revealed": {"country": "Switzerland", "city": "", "neighborhood": "", "exact_location_name": ""}, "image_id": "648685792"}
{"points": [[52.2319581, 21.0067249]], "confidences": [1], "centroid": [52.2319581, 21.0067249], "distance": 0.2817516042106784, "ground_truth": {"country": "Poland", "city": "Warsaw", "neighborhood": "\u015ar\u00f3dmie\u015bcie P\u00f3\u0142nocne", "exact_location_name": "Marszalkowska Street", "latitude": "52.2316201480502", "longitude": "21.010825052981833"}, "revealed": {"country": "Poland", "city": "Warsaw", "neighborhood": "", "exact_location_name": ""}, "image_id": "2129008328"}
{"distance": 999999999, "ground_truth": {"country": "Turkey", "city": "Istanbul", "neighborhood": "Taksim Square", "exact_location_name": "Taksim Train", "latitude": "41.033786574435325", "longitude": "28.977945196042075"}, "revealed": {"country": "", "city": "", "neighborhood": "", "exact_location_name": ""}, "image_id": "2225911785"}
{"distance": 999999999, "ground_truth": {"country": "United States", "city": "Cleveland, Ohio", "neighborhood": "downtown", "exact_location_name": "4th street", "latitude": "41.499197944302296", "longitude": "-81.69020637681075"}, "revealed": {"country": "", "city": "", "neighborhood": "", "exact_location_name": ""}, "image_id": "1625501503"}
{"distance": 999999999, "ground_truth": {"country": "Spain", "city": "Guernica", "neighborhood": "", "exact_location_name": "Picassoren \u201cGuernica\u201d horma-irudia", "latitude": "43.315454", "longitude": "-2.679964"}, "revealed": {"country": "", "city": "", "neighborhood": "", "exact_location_name": ""}, "image_id": "337184486"}
{"points": [[51.539047999999994, -0.16245690537610002], [51.5430599, -0.1541668], [51.541589, -0.1615368], [51.540156, -0.155398]], "confidences": [0, 0, 0, 0], "centroid": [51.540963281557374, -0.15838969369083547], "distance": 0.22795963544224682, "ground_truth": {"country": "England", "city": "London", "neighborhood": "Primrose HIll", "exact_location_name": "Primrose Hill", "latitude": "51.539132142891", "longitude": "-0.15987183976730576"}, "revealed": {"country": "England", "city": "London", "neighborhood": "Camden", "exact_location_name": "Primrose Hill"}, "image_id": "371221360"}
{"points": [[-33.862921, 151.202166], [-33.8625, 151.209], [-33.86003, 151.20669], [-33.90750075, 151.18456379309555], [-33.9076056, 151.18465537006983]], "confidences": [0.9, 0.45, 0.45, 0.35, 0.35], "centroid": [-33.87482221256888, 151.19929684743636], "distance": 2.7706021969699095, "ground_truth": {"country": "Australia", "city": "Sydney", "neighborhood": "Syndey Harbor", "exact_location_name": "Syndey Harbor Bridge", "latitude": "-33.852190442587684", "longitude": "151.21184925140443"}, "revealed": {"country": "Australia", "city": "Sydney", "neighborhood": "Sydney Harbour", "exact_location_name": "Mrs Macquarie's Chair"}, "image_id": "69083881"}
{"points": [[47.9184676, 106.9177016], [47.94093275, 106.91795035225584]], "confidences": [1, 1], "centroid": [47.92970017506714, 106.91782594911417], "distance": 2272.7328087499236, "ground_truth": {"country": "Kazakhstan", "city": "Saty", "neighborhood": "Saty Village", "exact_location_name": "", "latitude": "43.069381410104405", "longitude": "78.4071044274747"}, "revealed": {"country": "", "city": "Ulaanbaatar", "neighborhood": "", "exact_location_name": ""}, "image_id": "525111601"}
{"points": [[39.3564443, -74.4324407], [39.377094, -74.451563], [42.503455, -108.72536]], "confidences": [0.5, 0.25, 0.25], "centroid": [41.07850613249153, -82.51033752951813], "distance": 711.5036341352092, "ground_truth": {"country": "United States", "city": "Atlantic City, New Jersey", "neighborhood": "", "exact_location_name": "Atlantic City Boardwalk", "latitude": "39.35437344493688", "longitude": "-74.43697636363677"}, "revealed": {"country": "United States", "city": "Atlantic City", "neighborhood": "Boardwalk", "exact_location_name": "Bally's"}, "image_id": "181310189"}
{"points": [[39.319732, -76.649533], [39.518941, -76.687519], [39.302788, -76.610648]], "confidences": [0.125, 0.0625, 0.0625], "centroid": [39.36530136847309, -76.64927862847087], "distance": 8.208525063654614, "ground_truth": {"country": "USA", "city": "Baltimore ", "neighborhood": "Mount Vernon area", "exact_location_name": "Washington Monument", "latitude": "39.29622925187853", "longitude": "-76.61560088117675"}, "revealed": {"country": "United States", "city": "Baltimore, Maryland", "neighborhood": "Mount Vernon", "exact_location_name": "North Charles Street near Washington Monument"}, "image_id": "2435789413"}
{"points": [[61.0666922, -107.991707]], "confidences": [1], "centroid": [61.0666922, -107.991707], "distance": 2690.9256347854302, "ground_truth": {"country": "Canada", "city": "Peterborough ", "neighborhood": "Downtown", "exact_location_name": "Iceman Video Games", "latitude": "44.30568595725806", "longitude": "-78.32010560699"}, "revealed": {"country": "Canada", "city": "", "neighborhood": "", "exact_location_name": ""}, "image_id": "1422750812"}
{"distance": 999999999, "ground_truth": {"country": "United States", "city": "Cambridge, Massachusetts", "neighborhood": "", "exact_location_name": "Charles River, Harvard", "latitude": "42.36908456781346", "longitude": "-71.12002850777769"}, "revealed": {"country": "United States", "city": "Boston, Massachusetts", "neighborhood": "Charles River", "exact_location_name": "Head of the Charles Regatta"}, "image_id": "613455374"}
{"distance": 999999999, "ground_truth": {"country": "Belgium", "city": "Brussels", "neighborhood": "Grand Palace", "exact_location_name": "", "latitude": "50.847955517954624", "longitude": "4.351234967609024"}, "revealed": {"country": "", "city": "", "neighborhood": "", "exact_location_name": ""}, "image_id": "475430905"}
{"points": [[47.6038321, -122.330062]], "confidences": [1], "centroid": [47.6038321, -122.33006199999998], "distance": 17.30612108987275, "ground_truth": {"country": "United States", "city": "Redmond", "neighborhood": "Downtown", "exact_location_name": "Molly Moon's Ice Cream", "latitude": "47.67360501478283", "longitude": "-122.1235896726122"}, "revealed": {"country": "United States", "city": "Seattle", "neighborhood": "", "exact_location_name": ""}, "image_id": "1929373247"}
{"points": [[6.9350673, 79.85452726466498], [43.601842149999996, -83.88658365516727], [43.6018303, -83.8864739], [7.2896053, 80.63386549063617], [53.8899196, 27.5560602]], "confidences": [0, 0, 0, 0, 0], "centroid": [62.20098182909311, 37.893761490668716], "distance": 3385.158144169818, "ground_truth": {"country": "West Bank (Israel / Palestine)", "city": "Jerusalem", "neighborhood": "Givat HaMivtar", "exact_location_name": "Givat HaMivtar station", "latitude": "31.805822448708863", "longitude": "35.23447361433517"}, "revealed": {"country": "", "city": "", "neighborhood": "", "exact_location_name": "Central Bus Station"}, "image_id": "1909092280"}
{"points": [[45.092401, 6.0699443], [45.09163495, 6.06370484719712], [45.09281, 6.06986]], "confidences": [0, 0, 0], "centroid": [45.09228202057858, 6.067836359096914], "distance": 417.62639397593557, "ground_truth": {"country": "France", "city": "Ascou", "neighborhood": "", "exact_location_name": "Port de Pailleres", "latitude": "42.73597290416952", "longitude": "2.0064038787431544"}, "revealed": {"country": "France", "city": "", "neighborhood": "", "exact_location_name": "Alpe d'Huez"}, "image_id": "380393797"}
{"points": [[55.3500003, 23.7499997], [55.173289, 24.18368070709966]], "confidences": [1, 1], "centroid": [55.26183679014638, 23.967322435354376], "distance": 104.81488982886414, "ground_truth": {"country": "Lithuania", "city": "Vilnius", "neighborhood": "", "exact_location_name": "CUP Shopping Mall", "latitude": "54.69491595151207", "longitude": "25.27963821458161"}, "revealed": {"country": "Lithuania", "city": "", "neighborhood": "", "exact_location_name": ""}, "image_id": "520449577"}
{"distance": 999999999, "ground_truth": {"country": "United States", "city": "Bakersfield, California", "neighborhood": "", "exact_location_name": "Historic Bakersfield Fox Theatre", "latitude": "35.37746267428353", "longitude": "-119.02119556525705"}, "revealed": {"country": "", "city": "", "neighborhood": "", "exact_location_name": ""}, "image_id": "1938020713"}
{"distance": 999999999, "ground_truth": {"country": "United States", "city": "Louisville", "neighborhood": "Downtown", "exact_location_name": "21c Museum Hotel", "latitude": "38.25692494881293", "longitude": "-85.7619495060573"}, "revealed": {"country": "", "city": "", "neighborhood": "", "exact_location_name": ""}, "image_id": "421526818"}
{"distance": 999999999, "ground_truth": {"country": "Romania", "city": "Bude\u015fti", "neighborhood": "", "exact_location_name": "The wooden church of Saint Nicholas in Bude\u015fti", "latitude": "47.731410268016546", "longitude": "23.944116723821914"}, "revealed": {"country": "", "city": "", "neighborhood": "\u0218urde\u0219ti, Maramure\u0219 region", "exact_location_name": ""}, "image_id": "1255192396"}
{"points": [[45.5202471, -122.674194], [43.6573605, -70.2586618], [40.4344895, -84.9777455], [33.2378972, -91.5115095], [27.8818828, -97.3188666]], "confidences": [0.25, 0.25, 0.25, 0.25, 0.25], "centroid": [39.310181816837336, -93.08883093760339], "distance": 2509.596167058095, "ground_truth": {"country": "United States", "city": "Portland, Oregon", "neighborhood": "", "exact_location_name": "Portland State University", "latitude": "45.51114992706051", "longitude": "-122.68302241627283"}, "revealed": {"country": "United States", "city": "Portland", "neighborhood": "", "exact_location_name": "Portland State University"}, "image_id": "1468815464"}
{"points": [[41.061118, -74.004753], [41.0586333, -74.0218967], [41.0581848, -74.0222299], [41.0588339, -74.0223087], [41.0577922, -74.0223726]], "confidences": [0.6666666666666667, 0.6666666666666667, 0.6666666666666667, 0.6666666666666667, 0.6666666666666667], "centroid": [41.05891265066054, -74.01871229745734], "distance": 1181.5698498650631, "ground_truth": {"country": "United States", "city": "Savannah", "neighborhood": "Historic District", "exact_location_name": "Forsyth Park", "latitude": "32.069988720515475", "longitude": "-81.09509461866166"}, "revealed": {"country": "United States", "city": "Pearl River, NY", "neighborhood": "", "exact_location_name": ""}, "image_id": "1051470473"}
{"points": [[49.4093582, 8.694724], [49.4152352, 8.7208818], [49.4148944, 8.7199136], [49.415235, 8.720882], [49.409191, 8.694237]], "confidences": [0.5, 0.21739130434782608, 0.21739130434782608, 0, 0], "centroid": [49.412013140062626, 8.706664512483014], "distance": 0.19322231793978475, "ground_truth": {"country": "Germany", "city": "Heidelberg", "neighborhood": "marketplace in the old town center", "exact_location_name": "Heiliggeistkirche", "latitude": "49.41142018096211", "longitude": "8.70415399376422"}, "revealed": {"country": "Germany", "city": "Heidelberg", "neighborhood": "Altstadt (Old Town)", "exact_location_name": ""}, "image_id": "2165939217"}
{"distance": 999999999, "ground_truth": {"country": "United States", "city": "Chicago, Illinois", "neighborhood": "Streeterville", "exact_location_name": "Columbus Drive", "latitude": "41.88830395060306", "longitude": "-87.61992513211088"}, "revealed": {"country": "", "city": "", "neighborhood": "", "exact_location_name": ""}, "image_id": "1284282124"}
{"distance": 999999999, "ground_truth": {"country": "United States", "city": "Mount Dora, Florida", "neighborhood": "downtown Mount Dora", "exact_location_name": "Piglet's Pantry-Dog Bakery", "latitude": "28.799957770572977", "longitude": "-81.64416079199925"}, "revealed": {"country": "United States", "city": "Mount Dora, Florida", "neighborhood": "Downtown", "exact_location_name": "Piglet's Pantry Dog Bakery"}, "image_id": "2339873833"}
{"points": [[35.35121205, -80.68390123780337], [35.351802, -80.6835566], [35.3538658, -80.6848303], [35.3552309, -80.6803993], [35.3475041, -80.6832478]], "confidences": [0.33333333333333337, 0.33333333333333337, 0.33333333333333337, 0.33333333333333337, 0.33333333333333337], "centroid": [35.35192297916078, -80.68318706452405], "distance": 0.223325784600267, "ground_truth": {"country": "United States", "city": "Concord", "neighborhood": "", "exact_location_name": "Charlotte Motor Speedway", "latitude": "35.35235389543156", "longitude": "-80.68559218629282"}, "revealed": {"country": "United States", "city": "Concord, North Carolina", "neighborhood": "", "exact_location_name": "Charlotte Motor Speedway"}, "image_id": "497557876"}
{"points": [[-33.928992, 18.417396]], "confidences": [1], "centroid": [-33.928992, 18.417396], "distance": 3.7244223606206863, "ground_truth": {"country": "South Africa", "city": "Cape Town", "neighborhood": "Oudekraal", "exact_location_name": "Table Mountain", "latitude": "-33.962144782326355", "longitude": "18.41164299063081"}, "revealed": {"country": "South Africa", "city": "Cape Town", "neighborhood": "", "exact_location_name": ""}, "image_id": "1410049055"}
{"points": [[38.890146, -77.053068], [38.88946, -77.03783], [38.88987, -77.02278], [44.782678, -91.461058], [39.820841, -97.105432]], "confidences": [0.405, 0.405, 0.405, 0.36450000000000005, 0.36450000000000005], "centroid": [40.48151814909382, -83.31469418713306], "distance": 564.4460090779468, "ground_truth": {"country": "United States", "city": "Washington D.C.", "neighborhood": "National Mall", "exact_location_name": "Lincoln Memorial", "latitude": "38.888535", "longitude": "-77.049851"}, "revealed": {"country": "United States", "city": "Washington, D.C", "neighborhood": " National Mall", "exact_location_name": " Lincoln Memorial"}, "image_id": "1442253731"}
{"points": [[34.9985608, 135.7808951], [34.99102, 135.77872]], "confidences": [0.5, 0.5], "centroid": [34.99479040484923, 135.7798074998978], "distance": 0.8051746974030984, "ground_truth": {"country": "Japan", "city": "Kyoto", "neighborhood": "Higashiyama Ward", "exact_location_name": "Kennin-Ji Temple", "latitude": "35.00022083203523", "longitude": "135.77396016340845"}, "revealed": {"country": "Japan", "city": "Kyoto", "neighborhood": "Higashiyama-ku", "exact_location_name": ""}, "image_id": "544893559"}
{"points": [[33.2574332, -82.0007182], [33.3152993, -82.12543182545056], [33.2810245, -82.0493489], [33.287734, -82.162358], [33.3081752, -82.1332553]], "confidences": [0.81, 0.81, 0.19999999999999998, 0.19999999999999998, 0], "centroid": [33.28598896520566, -82.07152913648822], "distance": 10.18764884398711, "ground_truth": {"country": "United States", "city": "Hephzibah, Georgia", "neighborhood": "Town and Country Park", "exact_location_name": "Queensborough Bank", "latitude": "33.377446599717416", "longitude": "-82.07804918690739"}, "revealed": {"country": "", "city": "Augusta, GA", "neighborhood": "Hephzibah", "exact_location_name": ""}, "image_id": "2297134341"}
{"points": [[40.2508849, -75.7216437], [40.038642, -76.1820126], [40.2522931, -75.7238425], [40.0394245, -76.2025966], [40.038313, -76.269275]], "confidences": [0, 0, 0, 0, 0], "centroid": [40.12416800898738, -76.02024661874286], "distance": 6.809469990679878, "ground_truth": {"country": "United States", "city": "Intercourse", "neighborhood": "", "exact_location_name": "Kitchen Kettle Village", "latitude": "40.06338989637432", "longitude": "-76.0300498178759"}, "revealed": {"country": "", "city": "", "neighborhood": "", "exact_location_name": "Old Philadelphia Pike"}, "image_id": "664661140"}
{"points": [[38.8950368, -77.0365427]], "confidences": [0.81], "centroid": [38.89503680000001, -77.03654270000001], "distance": 0.31304664457539927, "ground_truth": {"country": "United States", "city": "Washington, D.C.", "neighborhood": "Pennsylvania Avenue", "exact_location_name": "White House", "latitude": "38.89785161975393", "longitude": "-77.03647615919515"}, "revealed": {"country": "United States", "city": "Washington, D.C", "neighborhood": "", "exact_location_name": ""}, "image_id": "2177491345"}
{"distance": 999999999, "ground_truth": {"country": "England", "city": "London", "neighborhood": "The Borough Market", "exact_location_name": "Furness Food Hut", "latitude": "51.505481", "longitude": "-0.090417"}, "revealed": {"country": "", "city": "", "neighborhood": "", "exact_location_name": ""}, "image_id": "1469215985"}
{"distance": 999999999, "ground_truth": {"country": "United States", "city": "Fort Worth, Texas", "neighborhood": "Fort Woth Stockyards Historical District", "exact_location_name": "Fort Worth Stockyards", "latitude": "32.789338509247976", "longitude": "-97.34634448667255"}, "revealed": {"country": "", "city": "", "neighborhood": "", "exact_location_name": ""}, "image_id": "204501676"}
{"distance": 999999999, "ground_truth": {"country": "India", "city": "Chennai", "neighborhood": "Meenambakkam", "exact_location_name": "Chennai International Airport", "latitude": "12.99154646010385", "longitude": "80.17050506722416"}, "revealed": {"country": "", "city": "", "neighborhood": "", "exact_location_name": ""}, "image_id": "2029815428"}
{"points": [[13.3617562, 103.8590321]], "confidences": [0.25], "centroid": [13.361756200000002, 103.8590321], "distance": 0.8652365640212684, "ground_truth": {"country": "Cambodia", "city": "Siem Reap", "neighborhood": "Pub Street", "exact_location_name": "Pub Street", "latitude": "13.354951228911448", "longitude": "103.85515352051011"}, "revealed": {"country": "Cambodia", "city": "Siem Reap", "neighborhood": "", "exact_location_name": "Pub Street"}, "image_id": "789637777"}
{"points": [[33.032954, -96.6605], [33.0329543, -96.6604997]], "confidences": [0, 0], "centroid": [33.032954149999995, -96.66049985], "distance": 1419.2285683568953, "ground_truth": {"country": "United States", "city": "Scottsdale, Arizona", "neighborhood": "Old Town Scottsdale", "exact_location_name": "Bronze Horse Fountain By Bob Parks", "latitude": "33.498765006110204", "longitude": "-111.92889070298685"}, "revealed": {"country": "United States", "city": "Scottsdale", "neighborhood": "Old Town", "exact_location_name": "Bob Parks Horse Fountain"}, "image_id": "1060147154"}
{"points": [[51.928928, 4.486416], [51.991748, 5.103215], [53.011792, 5.614913], [52.049924, 4.953307], [51.924795, 4.486356]], "confidences": [0.45, 0.45, 0.45, 0.45, 0.45], "centroid": [52.18218164568334, 4.9254151308472744], "distance": 10311.126143555412, "ground_truth": {"country": "Malaysia", "city": "Melaka", "neighborhood": "", "exact_location_name": "", "latitude": "2.208569976314419", "longitude": "102.24649838334206"}, "revealed": {"country": "", "city": "", "neighborhood": "Jonker Walk", "exact_location_name": "Riverwalk"}, "image_id": "565945786"}
{"distance": 999999999, "ground_truth": {"country": "United States", "city": "Beaverton", "neighborhood": "Raleigh West", "exact_location_name": "Uwajimaya", "latitude": "45.48566257463172", "longitude": "-122.78516940871728"}, "revealed": {"country": "", "city": "", "neighborhood": "", "exact_location_name": ""}, "image_id": "1363820270"}
{"distance": 999999999, "ground_truth": {"country": "United States", "city": "Indianapolis", "neighborhood": "Mile Square", "exact_location_name": "Soldiers and Sailors Monument", "latitude": "39.76869430941807", "longitude": "-86.15783985544765"}, "revealed": {"country": "", "city": "", "neighborhood": "Mile Square", "exact_location_name": ""}, "image_id": "662048146"}
{"points": [[49.83826, 24.02324], [47.8922, 31.09156], [47.86086, 33.54412]], "confidences": [0.25, 0.25, 0.25], "centroid": [48.60016896750036, 29.62681257141725], "distance": 428.8740602361086, "ground_truth": {"country": "Ukraine", "city": "Lviv", "neighborhood": "", "exact_location_name": "Rynok Square", "latitude": "49.841695032882775", "longitude": "24.034069504763494"}, "revealed": {"country": "Ukraine", "city": "Lviv", "neighborhood": "Ploshcha Rynok", "exact_location_name": "Lviv City Hall"}, "image_id": "1447042130"}
{"points": [[33.8080924, -84.1706273]], "confidences": [0.25], "centroid": [33.8080924, -84.1706273], "distance": 2.6313683369902154, "ground_truth": {"country": "United States", "city": "Stone Mountain, Georgia", "neighborhood": "Stone Mountain Park", "exact_location_name": "Confederate Memorial Carving", "latitude": "33.80880396477781", "longitude": "-84.14215974153754"}, "revealed": {"country": "United States", "city": "Stone Mountain", "neighborhood": "", "exact_location_name": "Stone Mountain Park"}, "image_id": "1173589825"}
{"points": [[40.447596, -80.005149]], "confidences": [0.125], "centroid": [40.447596000000004, -80.005149], "distance": 1471.5042170022236, "ground_truth": {"country": "United States", "city": "Oklahoma", "neighborhood": "Downtown", "exact_location_name": "Center of the Universe", "latitude": "36.157452559534114", "longitude": "-95.98857549210044"}, "revealed": {"country": "", "city": "Pittsburgh, PA", "neighborhood": "North Shore", "exact_location_name": "Cloud Arbor"}, "image_id": "2077110718"}
{"points": [[54.7023545, -3.2765753]], "confidences": [1], "centroid": [54.7023545, -3.2765753], "distance": 427.02991137727724, "ground_truth": {"country": "United Kingdom", "city": "Surrey", "neighborhood": "Leatherhead", "exact_location_name": "Sainsbury Supermarket", "latitude": "51.29568992059684", "longitude": "-0.3278187094161555"}, "revealed": {"country": "United Kingdom", "city": "", "neighborhood": "", "exact_location_name": ""}, "image_id": "2359976081"}
{"distance": 999999999, "ground_truth": {"country": "United States", "city": "Indianapolis Indiana", "neighborhood": "American Legion Mall", "exact_location_name": "Cenotaph Square", "latitude": "39.77730187152697", "longitude": "-86.15694351052159"}, "revealed": {"country": "", "city": "", "neighborhood": "Mile Square", "exact_location_name": ""}, "image_id": "1773472766"}
{"distance": 999999999, "ground_truth": {"country": "Montenegro", "city": "Perast", "neighborhood": "Kotor", "exact_location_name": "Bay of Kotor and Church St Nicholas in Perast", "latitude": "42.487985491988326", "longitude": "18.695581511472195"}, "revealed": {"country": "", "city": "", "neighborhood": "Perast", "exact_location_name": ""}, "image_id": "1922720348"}
{"points": [[44.01706, -107.956496], [32.75647, -101.949142], [41.308131, -96.067487], [43.589434, -116.246325], [40.525031, -111.857824]], "confidences": [1, 1, 1, 1, 1], "centroid": [40.660608899911296, -106.6387749719584], "distance": 1467.040950930092, "ground_truth": {"country": "United States", "city": "Seattle, Washington", "neighborhood": "Pioneer Square", "exact_location_name": "", "latitude": "47.6028366357076", "longitude": "-122.33079829132426"}, "revealed": {"country": "", "city": "", "neighborhood": "Pioneer Square", "exact_location_name": "Pioneer Square Station"}, "image_id": "491622043"}
{"distance": 999999999, "ground_truth": {"country": "United States", "city": "Cincinatti", "neighborhood": "Over the Rhine District", "exact_location_name": "Findlay Market", "latitude": "39.115397526572536", "longitude": "-84.51895022024516"}, "revealed": {"country": "", "city": "", "neighborhood": "", "exact_location_name": ""}, "image_id": "663020035"}
{"points": [[41.023133, 28.77377], [41.0159934, 28.969887], [41.018957, 28.952622], [41.0189575, 28.9526222], [41.01478, 28.9694]], "confidences": [0.3125, 0.12857142857142856, 0.10714285714285714, 0.10714285714285714, 0.25], "centroid": [41.01885952511574, 28.897977363357196], "distance": 6.167724709147153, "ground_truth": {"country": "Turkey", "city": "Istanbul", "neighborhood": "", "exact_location_name": "Yeni Cami Square", "latitude": "41.01664369581883", "longitude": "28.971433883416783"}, "revealed": {"country": "Turkey", "city": "Istanbul", "neighborhood": "Emin\u00f6n\u00fc quarter", "exact_location_name": "Yeni Camii"}, "image_id": "541310632"}
{"points": [[51.515254, -0.141427], [51.515137, -0.143608], [51.514982, -0.143846], [36.138107, -115.164785], [51.514991, -0.144688]], "confidences": [0, 0, 0, 0, 0], "centroid": [58.625671916252585, -18.959726542709852], "distance": 1427.8202921809818, "ground_truth": {"country": "England", "city": "London", "neighborhood": "Marylebone", "exact_location_name": "Nike Town", "latitude": "51.515695033609404", "longitude": "-0.14121962939073668"}, "revealed": {"country": "England", "city": "London", "neighborhood": "Oxford Circus", "exact_location_name": "Niketown"}, "image_id": "1204284154"}
{"points": [[35.333989, -80.712513], [35.22490315, -80.84787164862959], [27.0022555, -82.1252998], [35.1898421, -80.834853], [35.3341757, -80.71252744338565]], "confidences": [0.04166666666666667, 0.04166666666666667, 0.05512499999999999, 0.01851851851851852, 0.04166666666666667], "centroid": [32.98970931304679, -81.16868397901136], "distance": 253.34118607490234, "ground_truth": {"country": "United States", "city": "Charlotte, North Carolina", "neighborhood": "NoDa District", "exact_location_name": "Neighborhood Theatre and Cultural Center", "latitude": "35.24775381902615", "longitude": "-80.80200572051176"}, "revealed": {"country": "United States", "city": "Charlotte, North Carolina", "neighborhood": "North Davidson", "exact_location_name": "Neighborhood Theatre"}, "image_id": "2272100811"}
{"distance": 999999999, "ground_truth": {"country": "United States", "city": "Las Vegas", "neighborhood": "Downtown (Fremont Street)", "exact_location_name": "Golden Gate Hotel & Casino", "latitude": "36.171371591505554", "longitude": "-115.14653419365563"}, "revealed": {"country": "United States", "city": "Las Vegas", "neighborhood": "old Las Vegas", "exact_location_name": "Golden Gate Hotel & Casino on Fremont Street"}, "image_id": "110083406"}
{"points": [[4.5467167, -74.1119566], [1.882076, -76.2728979], [4.6745639, -72.8304091], [2.5194344, -77.6008084], [4.7406297, -74.3411437]], "confidences": [0.5, 0.25, 0.25, 0.25, 0.25], "centroid": [3.81987000006332, -74.8797688081658], "distance": 266.2709849922537, "ground_truth": {"country": "Colombia", "city": "Huila", "neighborhood": "San Austin Archeological Park", "exact_location_name": "", "latitude": "1.8858739125442041", "longitude": "-76.29365247377338"}, "revealed": {"country": "Colombia", "city": "San Agust\u00edn", "neighborhood": "", "exact_location_name": "San Agust\u00edn Archaeological Park"}, "image_id": "759440740"}
{"distance": 999999999, "ground_truth": {"country": "Germany", "city": "Cologne", "neighborhood": "Koln", "exact_location_name": "Great St. Martin Church", "latitude": "50.93838403434613", "longitude": "6.962247553798016"}, "revealed": {"country": "", "city": "", "neighborhood": "", "exact_location_name": ""}, "image_id": "320512151"}
{"points": [[51.5077, 0.0251], [51.508615, 0.04137], [51.508398, 0.042322], [51.508711500000004, 0.041471779966172156], [51.50867355, 0.042247008973091776]], "confidences": [0.5904900000000001, 0.5, 0.5, 0.5, 0.5], "centroid": [51.50839468345253, 0.03803394107397601], "distance": 0.2402746387113556, "ground_truth": {"country": "England", "city": "London", "neighborhood": "East London", "exact_location_name": "ExCel London Convention Center", "latitude": "51.51031808775388", "longitude": "0.03645170910893341"}, "revealed": {"country": "United Kingdom", "city": "London", "neighborhood": "Docklands", "exact_location_name": "ExCeL London"}, "image_id": "198333455"}
{"points": [[51.509648, -0.099076], [50.31556, -4.80078], [51.8641, -2.42259], [51.24572, -1.45959], [51.33137, -1.10797]], "confidences": [0, 0, 0, 0, 0], "centroid": [51.26424112014396, -1.9904768330668239], "distance": 131.5706325254126, "ground_truth": {"country": "England", "city": "London", "neighborhood": "Camden Market", "exact_location_name": "", "latitude": "51.541491663031344", "longitude": "-0.1465127243841857"}, "revealed": {"country": "England", "city": "London", "neighborhood": "Camden Market", "exact_location_name": "original Dr. Martens store"}, "image_id": "79403914"}
{"points": [[38.8950368, -77.0365427]], "confidences": [0.2025], "centroid": [38.89503680000001, -77.03654270000001], "distance": 1.2153660355529454, "ground_truth": {"country": "United States", "city": "Washington, DC", "neighborhood": "National Mall", "exact_location_name": "Smithsonian National Museum of Natural History", "latitude": "38.89144884348053", "longitude": "-77.02327771415487"}, "revealed": {"country": "United States", "city": "Washington, D.C.", "neighborhood": "", "exact_location_name": "Smithsonian National Museum of Natural History"}, "image_id": "488066209"}
{"distance": 999999999, "ground_truth": {"country": "United States", "city": "Newburyport, Maine", "neighborhood": "Downtown Newburyport/", "exact_location_name": "Market Square Historic district", "latitude": "42.81129202180349", "longitude": "-70.86971792475772"}, "revealed": {"country": "", "city": "", "neighborhood": "", "exact_location_name": ""}, "image_id": "2336185157"}
{"distance": 999999999, "ground_truth": {"country": "United States", "city": "Tulsa, OK", "neighborhood": "Oral Roberts University", "exact_location_name": "Praying Hands", "latitude": "36.052028122754855", "longitude": "-95.95660339784759"}, "revealed": {"country": "", "city": "", "neighborhood": "", "exact_location_name": ""}, "image_id": "756555517"}
{"distance": 999999999, "ground_truth": {"country": "Saudi Arabia", "city": "Riyadh", "neighborhood": "Al Bathaa", "exact_location_name": "Al Thumairi Souq", "latitude": "24.635586636651244", "longitude": "46.72166965908523"}, "revealed": {"country": "", "city": "", "neighborhood": "", "exact_location_name": ""}, "image_id": "322146053"}
{"points": [[6.9341293, 79.85289160349865], [6.9376, 79.8491], [6.93256185, 79.85553709254009], [6.933543650000001, 79.85554488685875], [6.9362523, 79.8499631]], "confidences": [0.3076923076923077, 0.5, 0.21428571428571427, 0.21428571428571427, 0], "centroid": [6.935159809564687, 79.85227657646251], "distance": 0.24824869609182515, "ground_truth": {"country": "Sri Lanka", "city": "Colombo Sri Lanka", "neighborhood": "Pettah", "exact_location_name": "Pettah Market", "latitude": "6.9363295326972505", "longitude": "79.85036096806982"}, "revealed": {"country": "Sri Lanka", "city": "Colombo", "neighborhood": "Pettah", "exact_location_name": ""}, "image_id": "756318343"}
{"points": [[40.756479, -73.837834], [40.7322889, -73.8682504], [43.125543, -83.863961], [43.11556, -83.86167], [40.74042105, -73.84275441543647]], "confidences": [0.18000000000000002, 0.09642857142857142, 0.02857142857142857, 0.07142857142857142, 0], "centroid": [41.46091753973024, -76.43196779929409], "distance": 230.56938268155488, "ground_truth": {"country": "United States", "city": "Queens, NY", "neighborhood": "Flushing", "exact_location_name": "Arthur Ashe Stadium", "latitude": "40.74963925218362", "longitude": "-73.84688942179932"}, "revealed": {"country": "USA", "city": "New York City", "neighborhood": "Flushing Meadows\u2013Corona Park in Queens", "exact_location_name": ""}, "image_id": "111793940"}
{"points": [[32.7751536, -79.9273335], [32.7762282, -79.9271927]], "confidences": [0.7290000000000001, 0.7290000000000001], "centroid": [32.77569090001969, -79.92726310042507], "distance": 0.019490174911111508, "ground_truth": {"country": "United States", "city": "Charleston, South Carolina", "neighborhood": "South of Broad", "exact_location_name": "Rainbow Row", "latitude": "32.775530789501005", "longitude": "-79.92734793245842"}, "revealed": {"country": "United States", "city": "Charleston, SC", "neighborhood": "", "exact_location_name": "Rainbow Row"}, "image_id": "576533023"}
{"points": [[48.2096573, 16.3604255], [48.207756, 16.379196], [48.207956, 16.223171], [47.090673, 15.400112]], "confidences": [0, 0, 0, 0], "centroid": [47.92973032037807, 16.08701426306596], "distance": 37.19869643503869, "ground_truth": {"country": "Austria", "city": "Vienna", "neighborhood": "Innere Stadt", "exact_location_name": "Burgtheater", "latitude": "48.209949", "longitude": "16.360478"}, "revealed": {"country": "", "city": "", "neighborhood": "", "exact_location_name": "Dr.-Karl-Lueger-Ring"}, "image_id": "567873295"}
{"points": [[39.2891836, -77.859581], [38.34982, -81.63262], [39.28562, -77.859094]], "confidences": [0.6666666666666667, 0.7692307692307693, 0.6666666666666667], "centroid": [38.95853089774632, -79.25118628268444], "distance": 125.75876101932992, "ground_truth": {"country": "United States", "city": "Charles Town, West Virginia", "neighborhood": "downtown", "exact_location_name": "Jefferson County Courthouse", "latitude": "39.29001367995356", "longitude": "-77.85733304369518"}, "revealed": {"country": "", "city": "Charles Town, WV", "neighborhood": "", "exact_location_name": ""}, "image_id": "1275445393"}
{"points": [[59.9133301, 10.7389701], [59.97239745, 10.775729194051895]], "confidences": [0.25, 0.25], "centroid": [59.94286505295689, 10.757333275440049], "distance": 2.682091172582804, "ground_truth": {"country": "Norway", "city": "Oslo", "neighborhood": "", "exact_location_name": "Vestbredden", "latitude": "59.91874947164385", "longitude": "10.756348808871143"}, "revealed": {"country": "Norway", "city": "Oslo", "neighborhood": "", "exact_location_name": "National Museum \u2013 Architecture"}, "image_id": "2168318911"}
{"points": [[3.1516964, 101.6942371], [2.748372, 101.69325937891327]], "confidences": [0.25, 0.2025], "centroid": [2.9712032467791567, 101.69379946861457], "distance": 29.620052135046294, "ground_truth": {"country": "Malaysia", "city": "Kuala Lumpur", "neighborhood": "Batu Caves", "exact_location_name": "Arulmigu Murugan Statue", "latitude": "3.2373934748096516", "longitude": "101.68374400087853"}, "revealed": {"country": "Malaysia", "city": "Kuala Lumpur", "neighborhood": "", "exact_location_name": "Lord Murugan statue at Batu Caves"}, "image_id": "605485106"}
{"distance": 999999999, "ground_truth": {"country": "Rwanda", "city": "Kigali", "neighborhood": "Kiyovu", "exact_location_name": "Grand Pension Plaza", "latitude": "-1.946084", "longitude": "30.060417"}, "revealed": {"country": "Kenya", "city": " Nairobi", "neighborhood": "central business district of Nairobi", "exact_location_name": ""}, "image_id": "1191651109"}
{"points": [[19.82522, -99.207989], [19.824871, -99.208109], [19.824143, -99.208285], [21.098124, -101.618805], [21.097819, -101.618416]], "confidences": [0.22049999999999997, 0.22049999999999997, 0.22049999999999997, 0.22049999999999997, 0.22049999999999997], "centroid": [20.337989536732024, -100.1674931197238], "distance": 2891.2694758069492, "ground_truth": {"country": "United States", "city": "San Francisco", "neighborhood": "West portal", "exact_location_name": "West Portal Station", "latitude": "37.74178728648845", "longitude": "-122.46441294084781"}, "revealed": {"country": "", "city": "", "neighborhood": "West Portal", "exact_location_name": "West Portal Station"}, "image_id": "328249667"}
{"points": [[45.379802, 6.5046312]], "confidences": [1], "centroid": [45.379802, 6.5046311999999995], "distance": 536.9496620079972, "ground_truth": {"country": "Spain", "city": "Salardu", "neighborhood": "", "exact_location_name": "Alberg Era Garona", "latitude": "42.70775702058611", "longitude": "0.905906479070353"}, "revealed": {"country": "", "city": "Saint-Martin-de-Belleville", "neighborhood": "", "exact_location_name": ""}, "image_id": "693149893"}
{"points": [[39.7837304, -100.445882]], "confidences": [1], "centroid": [39.7837304, -100.445882], "distance": 2475.9531030638905, "ground_truth": {"country": "USA", "city": "Lynn", "neighborhood": "Downtown", "exact_location_name": "Jerusalem Discount Furniture store", "latitude": "42.463364448101785", "longitude": "-70.94975395446633"}, "revealed": {"country": "United States", "city": "", "neighborhood": "", "exact_location_name": ""}, "image_id": "1734723791"}
{"points": [[42.3116046, -71.1143838], [42.31252, -71.11928724257095], [42.311841, -71.114456]], "confidences": [0.25, 0.25, 0.25], "centroid": [42.31198855620744, -71.11604233377817], "distance": 364.2116942488502, "ground_truth": {"country": "USA", "city": "New Jersey", "neighborhood": "Hightstown", "exact_location_name": "3 houses in (194 Stockton Street, part of the Stockton Street Historic District)", "latitude": "40.27115547606545", "longitude": "-74.52657381837449"}, "revealed": {"country": "United States", "city": "Boston, Massachusetts", "neighborhood": "Jamaica Plain", "exact_location_name": ""}, "image_id": "2436401151"}
{"points": [[33.883887, -84.5147454], [42.6872921, -75.5707376], [46.1591454, -68.0941202], [35.04196445, -81.40943051199227], [38.7820028, -85.4807936]], "confidences": [0.25, 0.25, 0.25, 0.25, 0.25], "centroid": [39.47976346728748, -79.40614820399688], "distance": 770.8895839276945, "ground_truth": {"country": "United States", "city": "Smyrna, Georgia", "neighborhood": "Village Green", "exact_location_name": "Smyrna Market Village", "latitude": "33.883901505851355", "longitude": "-84.51543746755786"}, "revealed": {"country": "United States", "city": "Smyrna", "neighborhood": "", "exact_location_name": "Market Village"}, "image_id": "2185222237"}
{"distance": 999999999, "ground_truth": {"country": "United States", "city": "Minneapolis, Minnesota", "neighborhood": "Uptown", "exact_location_name": "Granada Theare on Hennepin Ave", "latitude": "44.947632214048156", "longitude": "-93.29831865013618"}, "revealed": {"country": "", "city": "", "neighborhood": "", "exact_location_name": ""}, "image_id": "2072663324"}
{"points": [[20.4467515, -97.322792], [20.5340068, -97.458756], [20.534007, -97.458756], [32.53086145, -116.95078416418622], [19.503086, -99.203283]], "confidences": [0.5, 0.041666666666666664, 0.041666666666666664, 0.0625, 0], "centroid": [21.713019281188995, -99.04120815072095], "distance": 247.868056226746, "ground_truth": {"country": "Mexico", "city": "Mexico City", "neighborhood": "Villa Gustavo A. Madero", "exact_location_name": "Basilica of Our Lady Guadalupe", "latitude": "19.485022330945753", "longitude": "-99.11716609687292"}, "revealed": {"country": "Mexico", "city": "Papantla", "neighborhood": "Town Center", "exact_location_name": ""}, "image_id": "1232483185"}
{"distance": 999999999, "ground_truth": {"country": "Qatar", "city": "Ar-Rayyan", "neighborhood": "", "exact_location_name": "Carnegie Mellon University in Qatar", "latitude": "25.316506440657356", "longitude": "51.440224193097144"}, "revealed": {"country": "", "city": "", "neighborhood": "", "exact_location_name": ""}, "image_id": "2226061023"}
{"distance": 999999999, "ground_truth": {"country": "United States", "city": "Los Angeles", "neighborhood": "Hollywood", "exact_location_name": "In-N-Out Burger", "latitude": "34.09813588175476", "longitude": "-118.34160055954014"}, "revealed": {"country": "", "city": "", "neighborhood": "", "exact_location_name": ""}, "image_id": "1974837581"}
{"points": [[18.717009, -68.449967], [18.69634, -68.434], [18.66765, -68.403907]], "confidences": [0, 0, 0], "centroid": [18.693667299619463, -68.42928905892977], "distance": 2660.384181616624, "ground_truth": {"country": "USA", "city": "Peabody", "neighborhood": "Downtown ", "exact_location_name": "Bavaro Liquors in Peabody", "latitude": "42.525135812927154", "longitude": "-70.9278981493677"}, "revealed": {"country": "", "city": "", "neighborhood": "", "exact_location_name": "Bavaro Liquors"}, "image_id": "1864740115"}
{"distance": 999999999, "ground_truth": {"country": "Switzerland", "city": "Zurich", "neighborhood": "Kloten", "exact_location_name": "Zurich International Airport", "latitude": "47.461999874409535", "longitude": "8.550934819795282"}, "revealed": {"country": "", "city": "", "neighborhood": "Kloten", "exact_location_name": ""}, "image_id": "1364309540"}
{"distance": 999999999, "ground_truth": {"country": "United States", "city": "Pittsburgh, Pennsylvaia", "neighborhood": "Strip Districut", "exact_location_name": "Penn Ave", "latitude": "40.45173941327653", "longitude": "-79.9831393557037"}, "revealed": {"country": "", "city": "", "neighborhood": "Bloomfield", "exact_location_name": ""}, "image_id": "1130278979"}
{"points": [[45.5290436, -122.6815984], [45.52714, -122.682281]], "confidences": [0.25, 0.25], "centroid": [45.52809180050818, -122.68193970577519], "distance": 0.9848067632120487, "ground_truth": {"country": "United States", "city": "Portland, Oregon", "neighborhood": "Old Town", "exact_location_name": "Ankeny Alley", "latitude": "45.522819168887295", "longitude": "-122.6717824948279"}, "revealed": {"country": "", "city": "Portland, OR", "neighborhood": "Pearl District", "exact_location_name": ""}, "image_id": "566864311"}
{"distance": 999999999, "ground_truth": {"country": "UK", "city": "London", "neighborhood": "Primrose Hill", "exact_location_name": "34 Chalcot Cres (Primrose colorful houses)", "latitude": "51.540449408758874", "longitude": "-0.15581065358854634"}, "revealed": {"country": "", "city": "", "neighborhood": "", "exact_location_name": ""}, "image_id": "1358382899"}
{"points": [[51.044811, -114.099859], [51.04394, -114.098626], [51.040614, -114.10203], [51.0439218, -114.0985888349214], [51.040798, -114.099157]], "confidences": [0.9, 0.9, 0.81, 0.7, 0.7290000000000001], "centroid": [51.042896823441815, -114.0996728263364], "distance": 6.209395338148507, "ground_truth": {"country": "Canada", "city": "Calgary", "neighborhood": "Springbank Hill", "exact_location_name": "69 Street SW Station", "latitude": "51.03772513880166", "longitude": "-114.18810283212233"}, "revealed": {"country": "Canada", "city": "Calgary", "neighborhood": "Sunalta ", "exact_location_name": "Sunalta Station"}, "image_id": "2084300719"}
{"points": [[64.145981, -21.9422367]], "confidences": [0.25], "centroid": [64.145981, -21.9422367], "distance": 0.9858613851493212, "ground_truth": {"country": "Iceland", "city": "Reykjavik", "neighborhood": "Downtown", "exact_location_name": "Solfar", "latitude": "64.14768671743916", "longitude": "-21.92228460198849"}, "revealed": {"country": "Iceland", "city": "Reykjavik", "neighborhood": "", "exact_location_name": "Sun Voyager"}, "image_id": "134140433"}
{"distance": 999999999, "ground_truth": {"country": "United States", "city": "Des Moines, Iowa", "neighborhood": "", "exact_location_name": "Pappajohn Sculpture Park", "latitude": "41.585561158197706", "longitude": "-93.63385863287972"}, "revealed": {"country": "", "city": "", "neighborhood": "", "exact_location_name": ""}, "image_id": "1265340310"}
{"distance": 999999999, "ground_truth": {"country": "United States", "city": "New York City", "neighborhood": "Brooklyn", "exact_location_name": "Dekalb Market Hall", "latitude": "40.691425", "longitude": "-73.982349"}, "revealed": {"country": "", "city": "", "neighborhood": "", "exact_location_name": ""}, "image_id": "2413650251"}
{"distance": 999999999, "ground_truth": {"country": "China", "city": "Chengdu, Sichaun", "neighborhood": "Chunxi Road District", "exact_location_name": "IFS Shopping mall", "latitude": "30.658908362642602", "longitude": "104.08802493959328"}, "revealed": {"country": "", "city": "", "neighborhood": "", "exact_location_name": ""}, "image_id": "1480610120"}
{"points": [[28.1127948, 85.2960583]], "confidences": [1], "centroid": [28.1127948, 85.2960583], "distance": 1533.9678278294625, "ground_truth": {"country": "Pakistan", "city": "Bamboret", "neighborhood": "", "exact_location_name": "", "latitude": "35.69884163335919", "longitude": "71.69267085173499"}, "revealed": {"country": "Nepal", "city": "Dhunche", "neighborhood": "", "exact_location_name": ""}, "image_id": "398161144"}
{"points": [[-33.0458456, -71.6196749]], "confidences": [0.25], "centroid": [-33.0458456, -71.6196749], "distance": 642.2248449272399, "ground_truth": {"country": "Chile", "city": "Temuco", "neighborhood": "Poblacion Abraham Lincoln", "exact_location_name": "Las Quilas", "latitude": "-38.76573729639397", "longitude": "-72.60931256604965"}, "revealed": {"country": "Chile", "city": "Valpara\u00edso", "neighborhood": "", "exact_location_name": "Plaza Sotomayor"}, "image_id": "355525922"}
{"points": [[30.0443879, 31.2357257]], "confidences": [0.25], "centroid": [30.0443879, 31.2357257], "distance": 2.0989837712455834, "ground_truth": {"country": "Egypt", "city": "Cairo", "neighborhood": "Al-Darb Al-Ahmar", "exact_location_name": "", "latitude": "30.047540585800675", "longitude": "31.257226350116124"}, "revealed": {"country": "Egypt", "city": "Cairo", "neighborhood": "", "exact_location_name": "El Azhar Street"}, "image_id": "1372480571"}
{"distance": 999999999, "ground_truth": {"country": "United States", "city": "Brooklyn, New York", "neighborhood": "East River shore", "exact_location_name": "", "latitude": "40.78069964811697", "longitude": "-73.9010033049778"}, "revealed": {"country": "", "city": "", "neighborhood": "", "exact_location_name": ""}, "image_id": "1829693546"}
{"points": [[39.112556, -84.509697], [37.757402, -122.427993], [39.113518, -84.527664], [37.757276, -122.426971], [40.710099, -74.0113]], "confidences": [0, 0, 0, 0, 0], "centroid": [40.759226070290595, -97.74750055608601], "distance": 1607.2572708776217, "ground_truth": {"country": "United States", "city": "Winston-Salem, North Carolina", "neighborhood": "Downtown", "exact_location_name": "RAI Reynolds American Building", "latitude": "36.09988944201557", "longitude": "-80.24048180008296"}, "revealed": {"country": "", "city": "", "neighborhood": "", "exact_location_name": "4th Street and Liberty Street"}, "image_id": "1067347025"}
{"points": [[41.3591103, -81.8642565], [33.76113, -84.3052445], [41.359337, -81.866691], [41.359324, -81.865321], [34.2505844, -86.6853615]], "confidences": [0, 0, 0, 0, 0], "centroid": [38.435084702097534, -83.40297709501436], "distance": 663.7011643401789, "ground_truth": {"country": "United States", "city": "Tupelo, Missouri", "neighborhood": "Fairpark", "exact_location_name": "Elvis Presely Homecoming Statue", "latitude": "34.25746797417119", "longitude": "-88.69956396544416"}, "revealed": {"country": "United States", "city": "Tupelo, Mississippi", "neighborhood": "Fairpark District", "exact_location_name": "Elvis at 13"}, "image_id": "2286555435"}
{"points": [[12.0360639, 39.0456845]], "confidences": [0.25], "centroid": [12.036063900000002, 39.0456845], "distance": 0.6454977692470472, "ground_truth": {"country": "Ethiopia", "city": "Lalibela", "neighborhood": "", "exact_location_name": "Church of St. George", "latitude": "12.03195142691595", "longitude": "39.04149527256039"}, "revealed": {"country": "Ethiopia", "city": "Lalibela", "neighborhood": "", "exact_location_name": "Church of Saint George"}, "image_id": "1045369714"}
{"points": [[39.3260685, -4.8379791]], "confidences": [1], "centroid": [39.32606849999999, -4.837979099999999], "distance": 8550.005042361927, "ground_truth": {"country": "South Africa", "city": "Garden Route", "neighborhood": "", "exact_location_name": "Grootrivier River", "latitude": "-33.73295797065058", "longitude": "21.058763420516446"}, "revealed": {"country": "Spain", "city": "", "neighborhood": "", "exact_location_name": ""}, "image_id": "11046172"}
{"distance": 999999999, "ground_truth": {"country": "Japan", "city": "Osaka", "neighborhood": "Shinbaisashisuji", "exact_location_name": "Shinbaisashi-suji shopping street", "latitude": "34.67076058152382", "longitude": "135.5013977924861"}, "revealed": {"country": "", "city": "", "neighborhood": "", "exact_location_name": ""}, "image_id": "1315683644"}
{"points": [[44.4938203, 11.3426327], [45.8474911, 9.5796262], [44.8968739, 11.9852097], [46.0173765, 9.2993115]], "confidences": [0.25, 0.25, 0.25, 0.25], "centroid": [45.319552593307854, 10.563367564072903], "distance": 110.44907174800296, "ground_truth": {"country": "Italy", "city": "Bologna", "neighborhood": "Piazza Maggiore", "exact_location_name": "", "latitude": "44.493683496678536", "longitude": "11.342602641348531"}, "revealed": {"country": "Italy", "city": "Bologna", "neighborhood": "", "exact_location_name": "Piazza XX Settembre"}, "image_id": "1891866886"}
{"points": [[37.87215, -122.25975], [37.367813, -120.421858], [37.36513585, -120.42253889071495], [33.64294685, -117.84016055716225], [37.365885, -120.422795]], "confidences": [0.37209375, 0.125, 0, 0, 0], "centroid": [37.74802407693944, -121.79526941151997], "distance": 42.93253246848658, "ground_truth": {"country": "United States", "city": "Berkeley", "neighborhood": "UC Berkeley", "exact_location_name": "Sproul Plaza", "latitude": "37.86944917216077", "longitude": "-122.25917202191299"}, "revealed": {"country": "United States", "city": "Berkley, California", "neighborhood": "University of California, Berkeley", "exact_location_name": ""}, "image_id": "710426014"}
{"points": [[33.7489924, -84.3902644], [37.4356784, -96.7691606], [39.898646, -92.4810208], [38.708725, -75.6779851], [45.0047306, -84.1438927]], "confidences": [0.25, 0.25, 0.25, 0.25, 0.25], "centroid": [39.19006841683586, -86.72784830421138], "distance": 638.7296647830216, "ground_truth": {"country": "United States", "city": "Atlanta", "neighborhood": "Cenntennial Olympic Park", "exact_location_name": "", "latitude": "33.76050997255598", "longitude": "-84.3935588931029"}, "revealed": {"country": "United States", "city": "Atlanta", "neighborhood": "", "exact_location_name": "Centennial Olympic Park"}, "image_id": "1665875377"}
{"points": [[48.4096986, -114.3366925], [48.409898, -114.336697]], "confidences": [0, 0], "centroid": [48.40979830000003, -114.33669474999559], "distance": 0.15963289889798887, "ground_truth": {"country": "United States", "city": "Whitefish, MT", "neighborhood": "", "exact_location_name": "", "latitude": "48.41090645444018", "longitude": "-114.33531980421952"}, "revealed": {"country": "United States", "city": "Whitefish, MT", "neighborhood": "", "exact_location_name": "Central Ave"}, "image_id": "1656675451"}
{"distance": 999999999, "ground_truth": {"country": "United States", "city": "San Jose, California", "neighborhood": "Alameda", "exact_location_name": "Rosicrucian Egyptian Museum", "latitude": "37.33369500193693", "longitude": "-121.92226709196456"}, "revealed": {"country": "", "city": "", "neighborhood": "Rose Garden", "exact_location_name": ""}, "image_id": "1770946409"}
{"points": [[42.6977028, 23.3217359], [42.654318, 23.33315718769336]], "confidences": [0.25, 0.225], "centroid": [42.677152246756684, 23.32714797158459], "distance": 1.963059825966071, "ground_truth": {"country": "Bulgaria", "city": "Sofia", "neighborhood": "", "exact_location_name": "Ivan Vazon Ivan Vazov National Theatre", "latitude": "42.69479201803716", "longitude": "23.326176461244838"}, "revealed": {"country": "Bulgaria", "city": "Sofia", "neighborhood": "", "exact_location_name": "National Theatre \"Ivan Vazov\""}, "image_id": "285063017"}
{"distance": 999999999, "ground_truth": {"country": "Indonesia", "city": "Jakarta", "neighborhood": "", "exact_location_name": "Gelora Bung Karno Stadium", "latitude": "-6.216680", "longitude": "106.802553"}, "revealed": {"country": "", "city": "", "neighborhood": "", "exact_location_name": ""}, "image_id": "2388748871"}
{"points": [[-22.9115445, -68.2010471], [-22.912639, -68.2025], [-22.9819424, -68.1831521], [-22.9116518, -68.2012903], [-22.8882857, -68.21899643603723]], "confidences": [0.3076923076923077, 0.5, 0.24, 0.3076923076923077, 0.15384615384615385], "centroid": [-22.920753085050706, -68.20056378666432], "distance": 68.00125566862953, "ground_truth": {"country": "Chile", "city": "San Pedro de Atacama", "neighborhood": "El Tatio geyser field, Atacama Desert", "exact_location_name": "", "latitude": "-22.33421474200629", "longitude": "-68.01301916979122"}, "revealed": {"country": "", "city": "San Pedro de Atacama", "neighborhood": "Atacama Desert", "exact_location_name": ""}, "image_id": "1249940389"}
{"distance": 999999999, "ground_truth": {"country": "Norway", "city": "Oslo", "neighborhood": "Karl Johans street", "exact_location_name": "Carlings Karl Johans gate 16", "latitude": "59.912548625916656", "longitude": "10.743544581261604"}, "revealed": {"country": "", "city": "", "neighborhood": "", "exact_location_name": ""}, "image_id": "671930818"}
{"distance": 999999999, "ground_truth": {"country": "United States", "city": "Cumberland Island, Georgia", "neighborhood": "", "exact_location_name": "Cumberland Island Beach", "latitude": "30.852412442774007", "longitude": "-81.43381434156261"}, "revealed": {"country": "", "city": "", "neighborhood": "", "exact_location_name": ""}, "image_id": "601709189"}
{"points": [[-8.5068977, 115.2622931], [-8.5170982, 115.25517311869538], [-8.544035, 115.259287], [-8.5176, 115.2721], [-8.5355, 115.2146]], "confidences": [0.5, 0.5, 0.5, 0.5, 0.5], "centroid": [-8.524226683850564, 115.25269096407656], "distance": 2.2008091395874825, "ground_truth": {"country": "Indonesia", "city": "Ubud, Bali, Indonesia", "neighborhood": "Ubud", "exact_location_name": "", "latitude": "-8.506891333597364", "longitude": "115.26234849626324"}, "revealed": {"country": "", "city": "Ubud, Bali", "neighborhood": "", "exact_location_name": ""}, "image_id": "388032190"}
{"points": [[41.13240075, -104.81534216419368], [39.103486, -84.513372], [40.70619655, -74.01560822428976], [41.13368, -104.816623], [40.706257, -74.015845]], "confidences": [0.225, 0.1215, 0, 0, 0], "centroid": [40.83088106989063, -97.58603186718771], "distance": 607.5763302333472, "ground_truth": {"country": "United States", "city": "Cheyenne, Wyoming", "neighborhood": "", "exact_location_name": "The Wrangler", "latitude": "41.1327603566396", "longitude": "-104.81502971457614"}, "revealed": {"country": "United States", "city": "Cheyenne, WY", "neighborhood": "Downtown", "exact_location_name": "The Wrangler"}, "image_id": "1218773557"}
{"points": [[64.145981, -21.9422367]], "confidences": [0.25], "centroid": [64.145981, -21.9422367], "distance": 0.6307848236600321, "ground_truth": {"country": "Iceland", "city": "Reykjavik", "neighborhood": "Downtown", "exact_location_name": "Skolavordustigur", "latitude": "64.14465162866017", "longitude": "-21.929590643065296"}, "revealed": {"country": "Iceland", "city": "Reykjavik", "neighborhood": "", "exact_location_name": "Sk\u00f3lav\u00f6r\u00f0ust\u00edgur"}, "image_id": "2196592813"}
{"points": [[48.8588897, 2.3200410217200766], [48.8534951, 2.3483915], [48.8588897, 2.3200410217200766], [44.5626798, -0.865783], [44.491379, 0.3940874]], "confidences": [0.25, 0.25, 0.25, 0.25, 0.25], "centroid": [47.13296072325759, 1.2538042324299121], "distance": 209.29235226216284, "ground_truth": {"country": "France", "city": "Paris", "neighborhood": "", "exact_location_name": "Palais Garnier", "latitude": "48.871795", "longitude": "2.330884"}, "revealed": {"country": "France", "city": "Paris", "neighborhood": "", "exact_location_name": "Palais Garnier/Op\u00e9ra Garnier"}, "image_id": "2325733915"}
{"points": [[18.521428, 73.8544541], [1.7837578, 127.8542945], [-9.36924, 124.31618]], "confidences": [1, 1, 1], "centroid": [3.980130546873007, 109.80998763347309], "distance": 4228.929269564303, "ground_truth": {"country": "India", "city": "Pune, Maharashtra", "neighborhood": "", "exact_location_name": "Khanduji Baba Chowk", "latitude": "18.514997860133146", "longitude": "73.84465096786477"}, "revealed": {"country": "", "city": "Pune", "neighborhood": "", "exact_location_name": ""}, "image_id": "1134296366"}
{"distance": 999999999, "ground_truth": {"country": "Italy", "city": "Florence", "neighborhood": "", "exact_location_name": "Galleria dell'Accademia ", "latitude": "43.776857", "longitude": "11.258685"}, "revealed": {"country": "", "city": "", "neighborhood": "", "exact_location_name": ""}, "image_id": "188883485"}
{"distance": 999999999, "ground_truth": {"country": "United States", "city": "Milwaukee, Wisconsin", "neighborhood": "Junaeu Town", "exact_location_name": "Grohmann Museum", "latitude": "43.04426693318443", "longitude": "-87.90619961747156"}, "revealed": {"country": "", "city": "", "neighborhood": "", "exact_location_name": ""}, "image_id": "1449388364"}
{"distance": 999999999, "ground_truth": {"country": "United States", "city": "Boise, Idaho", "neighborhood": "downtown", "exact_location_name": "Idanha Hotel/Apartments", "latitude": "45.310376947681725", "longitude": "-104.86761837907017"}, "revealed": {"country": "", "city": "", "neighborhood": "", "exact_location_name": ""}, "image_id": "2071135850"}
{"distance": 999999999, "ground_truth": {"country": "United States", "city": "Boise, Idaho", "neighborhood": "Downtown", "exact_location_name": "Boise Holiday Parade", "latitude": "43.61799872753769", "longitude": "-116.20111739970572"}, "revealed": {"country": "", "city": "", "neighborhood": "", "exact_location_name": ""}, "image_id": "121160980"}
{"points": [[36.159939, -86.778594], [34.0429979, -118.2671352463293], [41.507997, -90.52040150165794], [38.8981883, -77.0209377602636], [42.00527665, -87.88777140346639]], "confidences": [0.03125, 0, 0, 0, 0], "centroid": [36.159939, -86.778594], "distance": 677.0364074387178, "ground_truth": {"country": "United States", "city": "Moline, Illinois", "neighborhood": "", "exact_location_name": "Vibrant Arena", "latitude": "41.50780215375539", "longitude": "-90.51966434424091"}, "revealed": {"country": "United States", "city": "Moline, IL", "neighborhood": "Downtown", "exact_location_name": "Vibrant Arena"}, "image_id": "2388768463"}
{"points": [[39.7837304, -100.445882]], "confidences": [1], "centroid": [39.7837304, -100.445882], "distance": 1347.1412520821802, "ground_truth": {"country": "United States", "city": "Las Vegas, Nevada", "neighborhood": "Downtown", "exact_location_name": "Life is Beautiful 2013", "latitude": "36.16948277371085", "longitude": "-115.13764714820577"}, "revealed": {"country": "United States", "city": "", "neighborhood": "", "exact_location_name": ""}, "image_id": "175561349"}
{"points": [[40.7621546, -73.9836347], [40.760053, -73.9848947], [40.7581552, -73.9856188], [40.7557155, -73.9864577], [40.7647849, -73.9822551]], "confidences": [0.33333333333333337, 0.33333333333333337, 0.33333333333333337, 0.33333333333333337, 0.33333333333333337], "centroid": [40.7601726494962, -73.98457226950161], "distance": 3943.4333435082276, "ground_truth": {"country": "United States", "city": "Los Angeles, California", "neighborhood": "Hollywood", "exact_location_name": "corner of Santa Monica Blvd and Highland Ave", "latitude": "34.09071395329263", "longitude": "-118.33856462436417"}, "revealed": {"country": "United States", "city": "", "neighborhood": "Broadway Theater District", "exact_location_name": ""}, "image_id": "1594318222"}
{"distance": 999999999, "ground_truth": {"country": "United States", "city": "Salt Lake City", "neighborhood": "Capitol Hill", "exact_location_name": "Utah State Capitol", "latitude": "40.776696591622226", "longitude": "-111.88842040116732"}, "revealed": {"country": "", "city": "", "neighborhood": "", "exact_location_name": ""}, "image_id": "106242719"}
{"points": [[30.2385208, -97.7504602], [30.249427, -97.749691]], "confidences": [0.45, 0.45], "centroid": [30.243973900561674, -97.75007562134174], "distance": 4.784095461880427, "ground_truth": {"country": "United States", "city": "Austin, Texas", "neighborhood": "The Drag, West Campus", "exact_location_name": "University Co-op", "latitude": "30.286349765354085", "longitude": "-97.74145906374503"}, "revealed": {"country": "United States", "city": "Austin, TX", "neighborhood": "South Congress", "exact_location_name": ""}, "image_id": "293055971"}
{"points": [[46.8137431, -71.2084061]], "confidences": [0.225], "centroid": [46.8137431, -71.2084061], "distance": 0.36195777044157706, "ground_truth": {"country": "Canada", "city": "Quebec City", "neighborhood": "Old Quebec", "exact_location_name": "Fairmont Le Ch\u00e2teau Frontenac", "latitude": "46.81233168229795", "longitude": "-71.20412010155974"}, "revealed": {"country": "Canada", "city": "Quebec City", "neighborhood": "", "exact_location_name": "Fairmont Le Ch\u00e2teau Frontenac"}, "image_id": "659739742"}
{"points": [[41.006381, 28.9758715]], "confidences": [0.25], "centroid": [41.006381, 28.975871499999997], "distance": 3.4985260428089338, "ground_truth": {"country": "Turkey", "city": "Instabul", "neighborhood": "Beyo\u011flu", "exact_location_name": "575 Ataturk Cultural Center", "latitude": "41.036582", "longitude": "28.987564"}, "revealed": {"country": "Turkey", "city": "Istanbul", "neighborhood": "", "exact_location_name": "Atat\u00fcrk Cultural Center"}, "image_id": "2239170157"}
{"distance": 999999999, "ground_truth": {"country": "Germany", "city": "Bremen", "neighborhood": "Bremen-Mitte", "exact_location_name": "Town Musicians of Bremen", "latitude": "53.07620731210177", "longitude": "8.807509575928004"}, "revealed": {"country": "", "city": "", "neighborhood": "Marktplatz", "exact_location_name": ""}, "image_id": "268585355"}
{"points": [[40.7233151, -73.9957289], [40.7170082, -73.9986598], [41.279312, -70.096224], [41.659747, -70.288257], [36.431411, -99.443034]], "confidences": [0, 0, 0, 0, 0], "centroid": [40.710445986533294, -77.76637599583104], "distance": 317.6194790102371, "ground_truth": {"country": "USA", "city": "New York", "neighborhood": "Lower Manhattan", "exact_location_name": "La Nonna", "latitude": "40.71857951995781", "longitude": "-73.99758376852763"}, "revealed": {"country": "", "city": "", "neighborhood": "", "exact_location_name": "Mulberry Street"}, "image_id": "202283887"}
{"points": [[34.7465071, -92.2896267], [34.713561, -92.355844], [34.7504386, -92.2870689], [34.750623, -92.287517], [34.7444997, -92.2588185]], "confidences": [0.6666666666666667, 0.6666666666666667, 0.6666666666666667, 0.6666666666666667, 0.6666666666666667], "centroid": [34.74113009503176, -92.29577979331812], "distance": 2.5491782048257647, "ground_truth": {"country": "united States", "city": "Little Rock, Arkansas", "neighborhood": "downtown Little Rock", "exact_location_name": "Scott Street and Markham intersection", "latitude": "34.747929748429634", "longitude": "-92.26913542823705"},