{"distance": 999999999, "ground_truth": {"country": "Romania", "city": "Maramures", "neighborhood": "Gherta Mica", "exact_location_name": "", "latitude": "47.93673312141987", "longitude": "23.22130934098346"}, "revealed": {"country": "", "city": "", "neighborhood": "", "exact_location_name": ""}, "image_id": "120272017"}
{"distance": 999999999, "ground_truth": {"country": "United States", "city": "Norwalk, Connecticut", "neighborhood": "Sono, South Norwalk", "exact_location_name": "Tablao Wine Bar and Restaurant", "latitude": "41.09905057103837", "longitude": "-73.4176908228421"}, "revealed": {"country": "", "city": "", "neighborhood": "", "exact_location_name": ""}, "image_id": "1746203696"}
{"distance": 999999999, "ground_truth": {"country": "Thailand", "city": "Phuket", "neighborhood": "Kathu District", "exact_location_name": "Dragon Market", "latitude": "7.883628978091936", "longitude": "98.29540826649459"}, "revealed": {"country": "", "city": "", "neighborhood": "", "exact_location_name": ""}, "image_id": "1280799814"}
{"distance": 999999999, "ground_truth": {"country": "United States", "city": "Ketchikan, Alaska", "neighborhood": "", "exact_location_name": "Creek Street", "latitude": "55.34254926180117", "longitude": "-131.6422838279352"}, "revealed": {"country": "", "city": "", "neighborhood": "", "exact_location_name": ""}, "image_id": "557056861"}
{"distance": 999999999, "ground_truth": {"country": "United States", "city": "Nashville, Tennessee", "neighborhood": "", "exact_location_name": "Broadway St", "latitude": "36.16142622342059", "longitude": "-86.77623064676544"}, "revealed": {"country": "", "city": "", "neighborhood": "", "exact_location_name": ""}, "image_id": "1444015241"}
{"distance": 999999999, "ground_truth": {"country": "Lithuania", "city": "Vilnius", "neighborhood": "Vilnius Old Town", "exact_location_name": "Vilnius Cathedral", "latitude": "54.68584328810577", "longitude": "25.2881421718804"}, "revealed": {"country": "", "city": "", "neighborhood": "", "exact_location_name": ""}, "image_id": "1202756137"}
{"distance": 999999999, "ground_truth": {"country": "United States", "city": "Columbus, Ohio", "neighborhood": "Scotio River", "exact_location_name": "Discovery Bridge", "latitude": "39.962418199300885", "longitude": "-83.00385567285008"}, "revealed": {"country": "", "city": "", "neighborhood": "", "exact_location_name": ""}, "image_id": "1756558634"}
{"distance": 999999999, "ground_truth": {"country": "Canada", "city": "Cobourg", "neighborhood": "", "exact_location_name": "City Streaks", "latitude": "43.95974758179526", "longitude": "-78.16704174879946"}, "revealed": {"country": "", "city": "", "neighborhood": "", "exact_location_name": ""}, "image_id": "2172610585"}
{"points": [[35.0841034, -106.650985]], "confidences": [1], "centroid": [35.084103400000004, -106.650985], "distance": 13.743451763413447, "ground_truth": {"country": "United States", "city": "Albuquerque, New Mexico", "neighborhood": "North Valley", "exact_location_name": "Balloon Fiesta Park", "latitude": "35.196508488208586", "longitude": "-106.58813442916608"}, "revealed": {"country": "United States", "city": "Albuquerque", "neighborhood": "", "exact_location_name": ""}, "image_id": "1985114579"}
{"distance": 999999999, "ground_truth": {"country": "Romania", "city": "Sighisoara", "neighborhood": "Old Town", "exact_location_name": "Casa Vlad Dracul", "latitude": "46.21965051972754", "longitude": "24.793374879259105"}, "revealed": {"country": "", "city": "", "neighborhood": "", "exact_location_name": ""}, "image_id": "1678344529"}
{"points": [[42.963886, -85.640622], [39.66634, -75.600944], [37.368357, -121.877357], [31.176788, -83.765956], [31.425043, -83.498598]], "confidences": [0, 0, 0, 0, 0], "centroid": [37.61946466462987, -89.7489314290315], "distance": 1514.5181225925367, "ground_truth": {"country": "United States", "city": "Basalt, Colorado", "neighborhood": "", "exact_location_name": "Basalt Sunday Market", "latitude": "39.36888289669152", "longitude": "-107.03470201870219"}, "revealed": {"country": "United States", "city": "Carbondale, CO", "neighborhood": "", "exact_location_name": "Carbondale Farmers' Market"}, "image_id": "1502573489"}
{"distance": 999999999, "ground_truth": {"country": "United States", "city": "Salt Lake City, Utah", "neighborhood": "University of Utah", "exact_location_name": "This is the Place Heritage Park/Monument", "latitude": "40.7521720040838", "longitude": "-111.81694655955143"}, "revealed": {"country": "", "city": "", "neighborhood": "", "exact_location_name": ""}, "image_id": "2200195765"}
{"distance": 999999999, "ground_truth": {"country": "United States", "city": "Long Beach, California", "neighborhood": "downtown", "exact_location_name": "Pine Avenue", "latitude": "33.770516225886624", "longitude": "-118.19240824178988"}, "revealed": {"country": "", "city": "", "neighborhood": "", "exact_location_name": ""}, "image_id": "1637787475"}
{"distance": 999999999, "ground_truth": {"country": "United States", "city": "Tampa", "neighborhood": "Ybor City", "exact_location_name": "", "latitude": "27.996445297588757", "longitude": "-82.43898689731925"}, "revealed": {"country": "", "city": "", "neighborhood": "", "exact_location_name": ""}, "image_id": "2060488949"}
{"distance": 999999999, "ground_truth": {"country": "USA", "city": "Kentucky", "neighborhood": "Corbin", "exact_location_name": "First KFC", "latitude": "36.96005488351659", "longitude": "-84.09393681142852"}, "revealed": {"country": "", "city": "", "neighborhood": "", "exact_location_name": ""}, "image_id": "713046427"}
{"distance": 999999999, "ground_truth": {"country": "Brazil", "city": "Sao Paulo", "neighborhood": "", "exact_location_name": "Butanta", "latitude": "-23.572299", "longitude": "-46.708081"}, "revealed": {"country": "", "city": "", "neighborhood": "", "exact_location_name": ""}, "image_id": "375716575"}
{"distance": 999999999, "ground_truth": {"country": "Portugal", "city": "Lisbon", "neighborhood": "Principe Real", "exact_location_name": "", "latitude": "41.05555064620908", "longitude": "-9.373722556922846"}, "revealed": {"country": "", "city": "", "neighborhood": "", "exact_location_name": ""}, "image_id": "255728641"}
{"distance": 999999999, "ground_truth": {"country": "Serbia", "city": "Belgrade", "neighborhood": "Stari Grad", "exact_location_name": "Republic Square", "latitude": "44.81620970253864", "longitude": "20.460629910322893"}, "revealed": {"country": "", "city": "", "neighborhood": "", "exact_location_name": ""}, "image_id": "1809375037"}
{"distance": 999999999, "ground_truth": {"country": "New Zealand", "city": "Rotorua", "neighborhood": "", "exact_location_name": "", "latitude": "-38.13388982740474", "longitude": "176.2575525330391"}, "revealed": {"country": "", "city": "", "neighborhood": "", "exact_location_name": ""}, "image_id": "1855156174"}
{"distance": 999999999, "ground_truth": {"country": "Iran", "city": "Isfahan", "neighborhood": "", "exact_location_name": "Si-o-Se Pol Bridge", "latitude": "32.64456331839465", "longitude": "51.66822844397424"}, "revealed": {"country": "", "city": "", "neighborhood": "", "exact_location_name": ""}, "image_id": "2379854663"}
{"distance": 999999999, "ground_truth": {"country": "USA", "city": "Huntsville", "neighborhood": "", "exact_location_name": " U.S. Space & Rocket Center ", "latitude": "34.71105175704378", "longitude": "-86.65289939281267"}, "revealed": {"country": "", "city": "", "neighborhood": "", "exact_location_name": ""}, "image_id": "1671189943"}
{"distance": 999999999, "ground_truth": {"country": "India", "city": "Chandigarh", "neighborhood": "Daria", "exact_location_name": "Chandigarh railway station", "latitude": "30.703435783357406", "longitude": "76.81945616944283"}, "revealed": {"country": "", "city": "", "neighborhood": "", "exact_location_name": ""}, "image_id": "2247697261"}
{"points": [[21.1618955, -86.8514988]], "confidences": [1], "centroid": [21.1618955, -86.8514988], "distance": 11.25211857408417, "ground_truth": {"country": "Mexico", "city": "Cancun", "neighborhood": "Hotel zone", "exact_location_name": "Coco Bongo", "latitude": "21.132579674193234", "longitude": "-86.74765214278449"}, "revealed": {"country": "Mexico", "city": "Cancun", "neighborhood": "", "exact_location_name": ""}, "image_id": "248239060"}
{"distance": 999999999, "ground_truth": {"country": "Uganda", "city": "Kabale", "neighborhood": "Kabale main street", "exact_location_name": "Shifa Chemists", "latitude": "-1.2589243600310476", "longitude": "29.99166075514613"}, "revealed": {"country": "", "city": "", "neighborhood": "", "exact_location_name": ""}, "image_id": "699139504"}
{"distance": 999999999, "ground_truth": {"country": "Italy", "city": "Pisa", "neighborhood": "", "exact_location_name": "", "latitude": "43.723741437310075", "longitude": "10.401213811327553"}, "revealed": {"country": "", "city": "", "neighborhood": "", "exact_location_name": ""}, "image_id": "681726940"}
{"points": [[54.18671, 45.18383]], "confidences": [0.25], "centroid": [54.18671, 45.18383], "distance": 1542.931016322737, "ground_truth": {"country": "Kazakhstan", "city": "Petropavl", "neighborhood": "Petropavl", "exact_location_name": "Garden of the City House of Culture", "latitude": "54.86179911157005", "longitude": "69.18255295632382"}, "revealed": {"country": "Russia", "city": "Saransk", "neighborhood": "", "exact_location_name": "A.S. Pushkin Park"}, "image_id": "617431418"}
{"points": [[42.6415, 18.10728], [42.642247, 18.107344], [43.907541, 16.396237], [45.32586395, 14.44568044684463], [45.325866, 14.445681]], "confidences": [0, 0, 0, 0, 0], "centroid": [43.980289087309586, 16.333597482889832], "distance": 206.74929707998498, "ground_truth": {"country": "Croatia", "city": "Dubrovnik", "neighborhood": "", "exact_location_name": "Onofrio's Fountain", "latitude": "42.641670007925335", "longitude": "18.107241753242747"}, "revealed": {"country": "Croatia", "city": "Dubrovnik", "neighborhood": "Dubrovnik's Old Town", "exact_location_name": "Onofrio's Fountain"}, "image_id": "187620461"}
{"distance": 999999999, "ground_truth": {"country": "Japan", "city": "Tokyo", "neighborhood": "Chiyoda City", "exact_location_name": "Yodobashi Akiba ", "latitude": "35.69943533199979", "longitude": "139.77527680457166"}, "revealed": {"country": "", "city": "", "neighborhood": "", "exact_location_name": ""}, "image_id": "1214342173"}
{"distance": 999999999, "ground_truth": {"country": "United States", "city": "PHILADELPHIA", "neighborhood": "Fairmount Park", "exact_location_name": "Rocky Statue", "latitude": "39.96518007709406", "longitude": "-75.17925931792665"}, "revealed": {"country": "", "city": "", "neighborhood": "", "exact_location_name": ""}, "image_id": "1247684770"}
{"distance": 999999999, "ground_truth": {"country": "United States", "city": "Tulsa, Oklahoma", "neighborhood": "Mayo Meadow", "exact_location_name": "The Golden Driller @ Tulsa Expo Center", "latitude": "36.13414928647753", "longitude": "-95.93127648416336"}, "revealed": {"country": "", "city": "", "neighborhood": "", "exact_location_name": ""}, "image_id": "2254064865"}
{"distance": 999999999, "ground_truth": {"country": "United States", "city": "Boston", "neighborhood": "Back Bay", "exact_location_name": "Boston Marathon Finish Line", "latitude": "42.34993919487396", "longitude": "-71.07829715162069"}, "revealed": {"country": "", "city": "", "neighborhood": "", "exact_location_name": ""}, "image_id": "28928515"}
{"points": [[49.3739817, 10.1802703], [49.3742659, 10.1801873], [49.374519, 10.180062], [49.374174, 10.180214]], "confidences": [0, 0, 0, 0], "centroid": [49.37423515002505, 10.180183400296192], "distance": 0.8009831962265659, "ground_truth": {"country": "Germany", "city": "Rothenburg ob der Tauber", "neighborhood": "", "exact_location_name": "Bezoldweg", "latitude": "49.38096856078939", "longitude": "10.18411441307373"}, "revealed": {"country": "", "city": "", "neighborhood": "", "exact_location_name": "Pl\u00f6nlein"}, "image_id": "83524039"}
{"distance": 999999999, "ground_truth": {"country": "United States", "city": "Charlotte", "neighborhood": "First Ward", "exact_location_name": "Charlotte Rail Trail", "latitude": "35.22581671345558", "longitude": "-80.84031360086263"}, "revealed": {"country": "", "city": "", "neighborhood": "", "exact_location_name": ""}, "image_id": "1016875066"}
{"distance": 999999999, "ground_truth": {"country": "United States", "city": "Cleveland", "neighborhood": "Downtown", "exact_location_name": "Rock and Roll Hall of Fame", "latitude": "41.50828165753982", "longitude": "-81.69448920801844"}, "revealed": {"country": "", "city": "", "neighborhood": "", "exact_location_name": ""}, "image_id": "1548419126"}
{"distance": 999999999, "ground_truth": {"country": "United States", "city": "Milwaukee, Wisconsin", "neighborhood": "downtown", "exact_location_name": "Milwaukee Public Market", "latitude": "43.03544938164579", "longitude": "-87.90647991252986"}, "revealed": {"country": "", "city": "", "neighborhood": "", "exact_location_name": ""}, "image_id": "2165339029"}
{"distance": 999999999, "ground_truth": {"country": "Switzerland", "city": "Lucerne", "neighborhood": "", "exact_location_name": "Dying Lion Monument", "latitude": "47.058617939400385", "longitude": "8.31137803761662"}, "revealed": {"country": "", "city": "", "neighborhood": "", "exact_location_name": ""}, "image_id": "2325643451"}
{"distance": 999999999, "ground_truth": {"country": "Turkiye", "city": "Istanbul", "neighborhood": "Sultanahmet", "exact_location_name": "Blue Mosque", "latitude": "41.00536180049531", "longitude": "28.97675612535281"}, "revealed": {"country": "", "city": "", "neighborhood": "", "exact_location_name": ""}, "image_id": "191040608"}
{"distance": 999999999, "ground_truth": {"country": "United States", "city": "Hartford, Connecticut", "neighborhood": "downtown Hartford", "exact_location_name": "", "latitude": "41.7646571598249", "longitude": "-72.6814003796757"}, "revealed": {"country": "", "city": "", "neighborhood": "", "exact_location_name": ""}, "image_id": "1155430582"}
{"distance": 999999999, "ground_truth": {"country": "United States", "city": "Fargo, North Dakota", "neighborhood": "downtown", "exact_location_name": "Fargo Theare", "latitude": "46.88026056177055", "longitude": "-96.78407303803846"}, "revealed": {"country": "", "city": "", "neighborhood": "", "exact_location_name": ""}, "image_id": "1728169420"}
{"distance": 999999999, "ground_truth": {"country": "Colombia", "city": "Medellin", "neighborhood": "La Candelaria", "exact_location_name": "", "latitude": "6.2534447659324615", "longitude": "-75.5630565351452"}, "revealed": {"country": "", "city": "", "neighborhood": "", "exact_location_name": ""}, "image_id": "1148736884"}
{"points": [[29.2095883, -99.7861833], [34.2383579, -102.7483577], [30.8074981, -95.1038076], [29.300357, -99.7733181]], "confidences": [0.9, 0.25, 0.25, 0], "centroid": [30.412637678162067, -99.46083822050743], "distance": 165.85311432802538, "ground_truth": {"country": "United States", "city": "Austin, Texas", "neighborhood": "Downtown", "exact_location_name": "Texas Capitol", "latitude": "30.27482269025831", "longitude": "-97.73989989258178"}, "revealed": {"country": "United States", "city": "Uvalde, TX", "neighborhood": "", "exact_location_name": ""}, "image_id": "2167943599"}
{"distance": 999999999, "ground_truth": {"country": "United States", "city": "Asheville, North Carolina", "neighborhood": "BIltmore", "exact_location_name": "Biltmore Estate", "latitude": "35.54247756522782", "longitude": "-82.54249213603079"}, "revealed": {"country": "", "city": "", "neighborhood": "", "exact_location_name": ""}, "image_id": "1110626339"}
{"distance": 999999999, "ground_truth": {"country": "Bosnia and Herzegovina", "city": "Mostar", "neighborhood": "", "exact_location_name": "Mostar Old Bridge", "latitude": "43.33745528724931", "longitude": "17.815531018751376"}, "revealed": {"country": "", "city": "", "neighborhood": "", "exact_location_name": ""}, "image_id": "1734506378"}
{"distance": 999999999, "ground_truth": {"country": "Australia", "city": "Petermann, Northern Territory", "neighborhood": "The Olmas", "exact_location_name": "Walpa Gorge", "latitude": "-25.299451566972962", "longitude": "130.73261438020657"}, "revealed": {"country": "", "city": "", "neighborhood": "", "exact_location_name": ""}, "image_id": "361077104"}
{"distance": 999999999, "ground_truth": {"country": "Cuba", "city": "Santa Clara", "neighborhood": "", "exact_location_name": "", "latitude": "22.405751910081666", "longitude": "-79.96454509531249"}, "revealed": {"country": "", "city": "", "neighborhood": "", "exact_location_name": ""}, "image_id": "214378558"}
{"distance": 999999999, "ground_truth": {"country": "United States", "city": "New York City", "neighborhood": "Manhatten Upper West Side", "exact_location_name": "Lincoln Center", "latitude": "40.77295114490602", "longitude": "-73.98001280145675"}, "revealed": {"country": "", "city": "", "neighborhood": "", "exact_location_name": ""}, "image_id": "1504403426"}
{"distance": 999999999, "ground_truth": {"country": "Croatia", "city": "Zagreb", "neighborhood": "", "exact_location_name": "St. Mark's Church", "latitude": "45.81603228421191", "longitude": "15.973784245190991"}, "revealed": {"country": "", "city": "", "neighborhood": "", "exact_location_name": ""}, "image_id": "1144222085"}
{"distance": 999999999, "ground_truth": {"country": "Ukraine", "city": "Kyiv", "neighborhood": "", "exact_location_name": "National Olympic Stadium (NSC Olimpiysky) in Kyiv", "latitude": "50.43287871941206", "longitude": "30.5168125650924"}, "revealed": {"country": "", "city": "", "neighborhood": "", "exact_location_name": ""}, "image_id": "501411259"}
{"distance": 999999999, "ground_truth": {"country": "USA", "city": "Arizona", "neighborhood": "Hackberry", "exact_location_name": "Hackberry General Store", "latitude": "35.3750275068579", "longitude": "-113.72276628471433"}, "revealed": {"country": "", "city": "Seligman, Arizona", "neighborhood": "", "exact_location_name": "Historic Seligman Sundries"}, "image_id": "2398547553"}
{"points": [[35.4443947, 139.6367727], [41.0830879, 141.2478217], [41.0827248, 141.2466403], [36.6658931, 136.7304164]], "confidences": [0.25, 0.25, 0.25, 0.25], "centroid": [38.583643177128074, 139.66789867911365], "distance": 348.0245675921615, "ground_truth": {"country": "Japan", "city": "Yokohama", "neighborhood": "Naka Ward", "exact_location_name": "Sky Duck", "latitude": "35.453893", "longitude": "139.635030"}, "revealed": {"country": "Japan", "city": "Yokohama", "neighborhood": "", "exact_location_name": "Ooka River"}, "image_id": "507082300"}
{"distance": 999999999, "ground_truth": {"country": "Thailand", "city": "Bangkok", "neighborhood": "Phra Nakhon", "exact_location_name": "Khao San Road", "latitude": "13.760004165654482", "longitude": "100.49785855763724"}, "revealed": {"country": "", "city": "", "neighborhood": "", "exact_location_name": ""}, "image_id": "766789852"}
{"distance": 999999999, "ground_truth": {"country": "United States", "city": "Cambridge", "neighborhood": "Harvard University", "exact_location_name": "Harvard Square", "latitude": "42.373453141729435", "longitude": "-71.1191218479589"}, "revealed": {"country": "", "city": "", "neighborhood": "", "exact_location_name": ""}, "image_id": "1007459842"}
{"distance": 999999999, "ground_truth": {"country": "United States", "city": "Philadelphia", "neighborhood": "Seventh Ward", "exact_location_name": "South Street", "latitude": "39.942155309956306", "longitude": "-75.15577847147762"}, "revealed": {"country": "", "city": "", "neighborhood": "", "exact_location_name": ""}, "image_id": "61078000"}
{"distance": 999999999, "ground_truth": {"country": "United States", "city": "Chicago", "neighborhood": "Lakeview", "exact_location_name": "The Metro", "latitude": "41.94991390289217", "longitude": "-87.65832910560266"}, "revealed": {"country": "", "city": "", "neighborhood": "", "exact_location_name": ""}, "image_id": "1357257488"}
{"distance": 999999999, "ground_truth": {"country": "United States", "city": "Portland, Oregon", "neighborhood": "Downtown", "exact_location_name": "City Hall", "latitude": "45.515019253393184", "longitude": "-122.67972816965916"}, "revealed": {"country": "", "city": "", "neighborhood": "", "exact_location_name": ""}, "image_id": "59433685"}
{"distance": 999999999, "ground_truth": {"country": "United States", "city": "Skagway, Alaska", "neighborhood": "Downtown Skagway, Broadway Avenue", "exact_location_name": "", "latitude": "59.45397208543509", "longitude": "-135.31839076246743"}, "revealed": {"country": "", "city": "", "neighborhood": "", "exact_location_name": ""}, "image_id": "1527880655"}
{"distance": 999999999, "ground_truth": {"country": "United States", "city": "Honolulu, Hawaii", "neighborhood": "", "exact_location_name": "Kapi\u02bbolani Regional Park", "latitude": "21.26692484656213", "longitude": "-157.81893599386368"}, "revealed": {"country": "", "city": "", "neighborhood": "", "exact_location_name": ""}, "image_id": "1081453934"}
{"points": [[33.52139495, -86.80911759035385]], "confidences": [0.9], "centroid": [33.52139495, -86.80911759035385], "distance": 0.5801944270680474, "ground_truth": {"country": "United States", "city": "Birmingham, Alabama", "neighborhood": "Fountain Heights", "exact_location_name": "16th St Baptist Church", "latitude": "33.5170319118955", "longitude": "-86.81255014923883"}, "revealed": {"country": "United States", "city": "Birmingham, AL", "neighborhood": "", "exact_location_name": "Jefferson County Courthouse"}, "image_id": "1794704176"}
{"distance": 999999999, "ground_truth": {"country": "Poland", "city": "LUBLIN", "neighborhood": "Old town", "exact_location_name": "\"Plac po Farze\" square", "latitude": "51.24874183716919", "longitude": "22.56926783201829"}, "revealed": {"country": "", "city": "", "neighborhood": "", "exact_location_name": ""}, "image_id": "1221633196"}
{"distance": 999999999, "ground_truth": {"country": "Bangladesh", "city": "Khulna", "neighborhood": "", "exact_location_name": "Majid Sarani", "latitude": "22.81937262207193", "longitude": "89.54830342491492"}, "revealed": {"country": "", "city": "", "neighborhood": "", "exact_location_name": ""}, "image_id": "1504007702"}
{"distance": 999999999, "ground_truth": {"country": "United States", "city": "Washington DC", "neighborhood": "", "exact_location_name": "Capitol Building", "latitude": "38.889822", "longitude": "-77.005708"}, "revealed": {"country": "", "city": "", "neighborhood": "", "exact_location_name": ""}, "image_id": "2378186027"}
{"distance": 999999999, "ground_truth": {"country": "United States", "city": "New York", "neighborhood": "Soho", "exact_location_name": "Dominique Ansel Bakery", "latitude": "40.72525373047921", "longitude": "-74.00287437779816"}, "revealed": {"country": "", "city": "", "neighborhood": "", "exact_location_name": ""}, "image_id": "1974115379"}
{"points": [[39.3169418, -0.4189012], [36.836446, -76.248826], [37.63613, -99.75402], [40.508799, -88.241272], [42.23759, -83.213401]], "confidences": [0, 0, 0, 0, 0], "centroid": [44.69007885802857, -72.90721729715084], "distance": 1601.7597404345395, "ground_truth": {"country": "United States", "city": "Minneapolis", "neighborhood": "Central", "exact_location_name": "", "latitude": "44.97889968577657", "longitude": "-93.26990142642684"}, "revealed": {"country": "", "city": "", "neighborhood": "", "exact_location_name": "Ford Assembly Plant"}, "image_id": "1413346727"}
{"distance": 999999999, "ground_truth": {"country": "Malaysia", "city": "Ipoh-Perak", "neighborhood": "Klebang Ria", "exact_location_name": "TGV Cinema Aeon Shopping Center", "latitude": "4.677901708989921", "longitude": "101.12239739485483"}, "revealed": {"country": "", "city": "", "neighborhood": "", "exact_location_name": ""}, "image_id": "1300380184"}
{"points": [[33.95158745, -84.54718053382844], [33.9515552, -84.5472223]], "confidences": [0.9, 0.9], "centroid": [33.951571325001765, -84.54720141691817], "distance": 0.046269387121741244, "ground_truth": {"country": "United States", "city": "Marietta, Georgia", "neighborhood": "", "exact_location_name": "Joe Mack Wilson Park", "latitude": "33.95175716848243", "longitude": "-84.54675259244992"}, "revealed": {"country": "United States", "city": "Marietta, GA", "neighborhood": "", "exact_location_name": "Joe Mack Wilson Park"}, "image_id": "2308293533"}
{"distance": 999999999, "ground_truth": {"country": "Russia", "city": "Saint Petersburg", "neighborhood": "Petrogradsky district", "exact_location_name": "State museum of the history of Saint Petersburg", "latitude": "59.94976967315261", "longitude": "30.31672181123562"}, "revealed": {"country": "", "city": "", "neighborhood": "", "exact_location_name": ""}, "image_id": "2315046925"}
{"points": [[39.7837304, -100.445882]], "confidences": [1], "centroid": [39.7837304, -100.445882], "distance": 2040.3276437191928, "ground_truth": {"country": "USA", "city": "Baltimore", "neighborhood": "Fells Point", "exact_location_name": "St. Michael the Archangel Roman Catholic Church", "latitude": "39.290495779348944", "longitude": "-76.59122697525082"}, "revealed": {"country": "United States", "city": "", "neighborhood": "", "exact_location_name": ""}, "image_id": "1198066141"}
{"distance": 999999999, "ground_truth": {"country": "United States", "city": "New Orleans", "neighborhood": "Central City", "exact_location_name": "", "latitude": "29.93958082634766", "longitude": "-90.08805549361988"}, "revealed": {"country": "", "city": "", "neighborhood": "Lower Garden District", "exact_location_name": ""}, "image_id": "1868134549"}
{"points": [[36.7099311, 67.1092145]], "confidences": [0.25], "centroid": [36.70993109999999, 67.1092145], "distance": 0.39118474992031266, "ground_truth": {"country": "Afghanistan", "city": "Mazar i-Sharif", "neighborhood": "", "exact_location_name": "Shrine of Hazrat Ali", "latitude": "36.70956832728455", "longitude": "67.11357943502473"}, "revealed": {"country": "Afghanistan", "city": "Mazar-i-Sharif", "neighborhood": "", "exact_location_name": "Shrine of Hazrat Ali"}, "image_id": "792395557"}
{"points": [[35.497815, -86.074643], [31.399392, -85.990917], [31.538035, -82.849189], [32.903177, -105.959347]], "confidences": [0, 0, 0, 0], "centroid": [33.17137714882327, -90.16144932088494], "distance": 13751.425459649428, "ground_truth": {"country": "Vietnam", "city": "Hanoi", "neighborhood": "West Lake, Tay Ho", "exact_location_name": "Memories Coffee", "latitude": "21.0490029214144", "longitude": "105.83995791377835"}, "revealed": {"country": "", "city": "", "neighborhood": "", "exact_location_name": "Memories Coffee"}, "image_id": "2244449735"}
{"distance": 999999999, "ground_truth": {"country": "Australia", "city": "Perth", "neighborhood": "", "exact_location_name": "London Court", "latitude": "-31.955151634875797", "longitude": "115.85871831009426"}, "revealed": {"country": "", "city": "", "neighborhood": "", "exact_location_name": ""}, "image_id": "391058833"}
{"distance": 999999999, "ground_truth": {"country": "Laos", "city": "Vientiane", "neighborhood": "Nongchan", "exact_location_name": "", "latitude": "17.96337966877376", "longitude": "102.61925819671022"}, "revealed": {"country": "", "city": "", "neighborhood": "", "exact_location_name": ""}, "image_id": "1459780406"}
{"distance": 999999999, "ground_truth": {"country": "Lithuania", "city": "Kaunas", "neighborhood": "", "exact_location_name": "Monument to commemorate the victims of Nazism", "latitude": "54.94383699254298", "longitude": "23.86826186072255"}, "revealed": {"country": "", "city": "", "neighborhood": "", "exact_location_name": ""}, "image_id": "1459410086"}
{"distance": 999999999, "ground_truth": {"country": "India", "city": "New Delhi", "neighborhood": "", "exact_location_name": "Rajpath", "latitude": "28.613115002615768", "longitude": "77.22523475823135"}, "revealed": {"country": "", "city": "", "neighborhood": "", "exact_location_name": ""}, "image_id": "8696395"}
{"distance": 999999999, "ground_truth": {"country": "Spain", "city": "Zaragoza", "neighborhood": "", "exact_location_name": "Pavilion of Aragon", "latitude": "41.671078", "longitude": "-0.897720"}, "revealed": {"country": "", "city": "", "neighborhood": "", "exact_location_name": ""}, "image_id": "1488417635"}
{"distance": 999999999, "ground_truth": {"country": "United States", "city": "Manhattan, New York", "neighborhood": "Midtown West Manhattan", "exact_location_name": "New York Public Library", "latitude": "40.753287956119145", "longitude": "-73.98177060255432"}, "revealed": {"country": "", "city": "", "neighborhood": "", "exact_location_name": ""}, "image_id": "641892601"}
{"points": [[39.9417813, -75.1454205], [39.95462325, -75.14237765298707], [39.94621, -75.1434160886187], [39.952897, -75.145112], [39.9451907, -75.1448913]], "confidences": [0.22049999999999997, 0.16666666666666666, 0.125, 0.25, 0.08333333333333333], "centroid": [39.9485902405456, -75.14438102168026], "distance": 0.18956817630610573, "ground_truth": {"country": "United States", "city": "Philadelphia", "neighborhood": "Old City", "exact_location_name": "Old City Frozen Yogurt and Crepes", "latitude": "39.95029290168183", "longitude": "-75.14449309814506"}, "revealed": {"country": "United States", "city": "Philadelphia, PA", "neighborhood": "Old City", "exact_location_name": ""}, "image_id": "552371185"}
{"distance": 999999999, "ground_truth": {"country": "USA", "city": "Port Jervis", "neighborhood": "", "exact_location_name": "Port Restaurant Equipment and Supplies", "latitude": "41.37325219518677", "longitude": "-74.69196827131694"}, "revealed": {"country": "", "city": "", "neighborhood": "", "exact_location_name": ""}, "image_id": "1444616150"}
{"distance": 999999999, "ground_truth": {"country": "Turkey", "city": "Istanbul", "neighborhood": "Kabatas, Beyoglu", "exact_location_name": "Cicek Pasaji", "latitude": "41.03425360936691", "longitude": "28.97831137900976"}, "revealed": {"country": "", "city": "", "neighborhood": "", "exact_location_name": ""}, "image_id": "2393486583"}
{"points": [[38.7819762, -77.1461045], [44.2273919, -71.7478468], [40.3078812, -75.3576763], [45.3702408, -92.6915973], [18.485197, -69.8274757]], "confidences": [0.25, 0.25, 0.25, 0.25, 0.25], "centroid": [37.7583618719832, -76.79473390452522], "distance": 826.1911164256704, "ground_truth": {"country": "United States", "city": "Lincoln, NH", "neighborhood": "", "exact_location_name": "", "latitude": "44.10965128914028", "longitude": "-71.68149384841524"}, "revealed": {"country": "", "city": "Franconia", "neighborhood": "", "exact_location_name": "Franconia Notch State Park"}, "image_id": "2292369373"}
{"points": [[47.3722329, 8.5423291], [47.372153, 8.541968], [47.37055, 8.54177], [47.4987315, 8.7263871], [53.2484091, 10.4023296]], "confidences": [0.5, 0.5, 0.5, 0, 0], "centroid": [47.37164530023299, 8.54202236395486], "distance": 0.21696470601104834, "ground_truth": {"country": "Switzerland", "city": "Zurich", "neighborhood": "Lindenhof", "exact_location_name": "Augustinergasse", "latitude": "47.372229682752895", "longitude": "8.539273480066596"}, "revealed": {"country": "", "city": "Zurich ", "neighborhood": "Altstadt", "exact_location_name": ""}, "image_id": "648685792"}
{"points": [[52.215933, 19.134422], [51.9190521, 19.15681890956004]], "confidences": [1, 1], "centroid": [52.06749308061133, 19.145657679691713], "distance": 128.557628945263, "ground_truth": {"country": "Poland", "city": "Warsaw", "neighborhood": "\u015ar\u00f3dmie\u015bcie P\u00f3\u0142nocne", "exact_location_name": "Marszalkowska Street", "latitude": "52.2316201480502", "longitude": "21.010825052981833"}, "revealed": {"country": "Poland", "city": "", "neighborhood": "", "exact_location_name": ""}, "image_id": "2129008328"}
{"distance": 999999999, "ground_truth": {"country": "Turkey", "city": "Istanbul", "neighborhood": "Taksim Square", "exact_location_name": "Taksim Train", "latitude": "41.033786574435325", "longitude": "28.977945196042075"}, "revealed": {"country": "", "city": "", "neighborhood": "", "exact_location_name": ""}, "image_id": "2225911785"}
{"distance": 999999999, "ground_truth": {"country": "United States", "city": "Cleveland, Ohio", "neighborhood": "downtown", "exact_location_name": "4th street", "latitude": "41.499197944302296", "longitude": "-81.69020637681075"}, "revealed": {"country": "", "city": "", "neighborhood": "", "exact_location_name": ""}, "image_id": "1625501503"}
{"distance": 999999999, "ground_truth": {"country": "Spain", "city": "Guernica", "neighborhood": "", "exact_location_name": "Picassoren \u201cGuernica\u201d horma-irudia", "latitude": "43.315454", "longitude": "-2.679964"}, "revealed": {"country": "", "city": "", "neighborhood": "", "exact_location_name": ""}, "image_id": "337184486"}
{"distance": 999999999, "ground_truth": {"country": "England", "city": "London", "neighborhood": "Primrose HIll", "exact_location_name": "Primrose Hill", "latitude": "51.539132142891", "longitude": "-0.15987183976730576"}, "revealed": {"country": "", "city": "", "neighborhood": "", "exact_location_name": ""}, "image_id": "371221360"}
{"points": [[-33.868633, 151.209421], [-33.8466258, 151.2121863]], "confidences": [0.25, 0], "centroid": [-33.868633, 151.209421], "distance": 1.8420258314274531, "ground_truth": {"country": "Australia", "city": "Sydney", "neighborhood": "Syndey Harbor", "exact_location_name": "Syndey Harbor Bridge", "latitude": "-33.852190442587684", "longitude": "151.21184925140443"}, "revealed": {"country": "Australia", "city": "Sydney", "neighborhood": "Sydney Harbour", "exact_location_name": "Sydney Harbour Bridge"}, "image_id": "69083881"}
{"points": [[47.9184676, 106.9177016], [47.94093275, 106.91795035225584]], "confidences": [1, 1], "centroid": [47.92970017506714, 106.91782594911417], "distance": 2272.7328087499236, "ground_truth": {"country": "Kazakhstan", "city": "Saty", "neighborhood": "Saty Village", "exact_location_name": "", "latitude": "43.069381410104405", "longitude": "78.4071044274747"}, "revealed": {"country": "Mongolia", "city": "Ulaanbaatar", "neighborhood": "", "exact_location_name": ""}, "image_id": "525111601"}
{"distance": 999999999, "ground_truth": {"country": "United States", "city": "Atlantic City, New Jersey", "neighborhood": "", "exact_location_name": "Atlantic City Boardwalk", "latitude": "39.35437344493688", "longitude": "-74.43697636363677"}, "revealed": {"country": "", "city": "", "neighborhood": "", "exact_location_name": ""}, "image_id": "181310189"}
{"distance": 999999999, "ground_truth": {"country": "USA", "city": "Baltimore ", "neighborhood": "Mount Vernon area", "exact_location_name": "Washington Monument", "latitude": "39.29622925187853", "longitude": "-76.61560088117675"}, "revealed": {"country": "", "city": "", "neighborhood": "", "exact_location_name": ""}, "image_id": "2435789413"}
{"distance": 999999999, "ground_truth": {"country": "Canada", "city": "Peterborough ", "neighborhood": "Downtown", "exact_location_name": "Iceman Video Games", "latitude": "44.30568595725806", "longitude": "-78.32010560699"}, "revealed": {"country": "", "city": "", "neighborhood": "", "exact_location_name": ""}, "image_id": "1422750812"}
{"distance": 999999999, "ground_truth": {"country": "United States", "city": "Cambridge, Massachusetts", "neighborhood": "", "exact_location_name": "Charles River, Harvard", "latitude": "42.36908456781346", "longitude": "-71.12002850777769"}, "revealed": {"country": "", "city": "", "neighborhood": "", "exact_location_name": ""}, "image_id": "613455374"}
{"distance": 999999999, "ground_truth": {"country": "Belgium", "city": "Brussels", "neighborhood": "Grand Palace", "exact_location_name": "", "latitude": "50.847955517954624", "longitude": "4.351234967609024"}, "revealed": {"country": "", "city": "", "neighborhood": "", "exact_location_name": ""}, "image_id": "475430905"}
{"points": [[47.6038321, -122.330062]], "confidences": [1], "centroid": [47.6038321, -122.33006199999998], "distance": 17.30612108987275, "ground_truth": {"country": "United States", "city": "Redmond", "neighborhood": "Downtown", "exact_location_name": "Molly Moon's Ice Cream", "latitude": "47.67360501478283", "longitude": "-122.1235896726122"}, "revealed": {"country": "United States", "city": "Seattle", "neighborhood": "", "exact_location_name": ""}, "image_id": "1929373247"}
{"distance": 999999999, "ground_truth": {"country": "West Bank (Israel / Palestine)", "city": "Jerusalem", "neighborhood": "Givat HaMivtar", "exact_location_name": "Givat HaMivtar station", "latitude": "31.805822448708863", "longitude": "35.23447361433517"}, "revealed": {"country": "", "city": "", "neighborhood": "", "exact_location_name": ""}, "image_id": "1909092280"}
{"points": [[46.603354, 1.8883335]], "confidences": [1], "centroid": [46.603354, 1.8883335], "distance": 430.13435453868294, "ground_truth": {"country": "France", "city": "Ascou", "neighborhood": "", "exact_location_name": "Port de Pailleres", "latitude": "42.73597290416952", "longitude": "2.0064038787431544"}, "revealed": {"country": "France", "city": "", "neighborhood": "", "exact_location_name": ""}, "image_id": "380393797"}
{"distance": 999999999, "ground_truth": {"country": "Lithuania", "city": "Vilnius", "neighborhood": "", "exact_location_name": "CUP Shopping Mall", "latitude": "54.69491595151207", "longitude": "25.27963821458161"}, "revealed": {"country": "", "city": "", "neighborhood": "", "exact_location_name": ""}, "image_id": "520449577"}
{"distance": 999999999, "ground_truth": {"country": "United States", "city": "Bakersfield, California", "neighborhood": "", "exact_location_name": "Historic Bakersfield Fox Theatre", "latitude": "35.37746267428353", "longitude": "-119.02119556525705"}, "revealed": {"country": "", "city": "", "neighborhood": "", "exact_location_name": ""}, "image_id": "1938020713"}
{"points": [[39.7837304, -100.445882]], "confidences": [1], "centroid": [39.7837304, -100.445882], "distance": 1278.37344442955, "ground_truth": {"country": "United States", "city": "Louisville", "neighborhood": "Downtown", "exact_location_name": "21c Museum Hotel", "latitude": "38.25692494881293", "longitude": "-85.7619495060573"}, "revealed": {"country": "United States", "city": "", "neighborhood": "", "exact_location_name": ""}, "image_id": "421526818"}
{"points": [[47.5969901, 23.76463670337953]], "confidences": [0], "centroid": [47.59699009999999, 23.764636703379534], "distance": 20.10125134120271, "ground_truth": {"country": "Romania", "city": "Bude\u015fti", "neighborhood": "", "exact_location_name": "The wooden church of Saint Nicholas in Bude\u015fti", "latitude": "47.731410268016546", "longitude": "23.944116723821914"}, "revealed": {"country": "", "city": "", "neighborhood": "", "exact_location_name": "The Wooden Church of \u0218urde\u0219ti"}, "image_id": "1255192396"}
{"distance": 999999999, "ground_truth": {"country": "United States", "city": "Portland, Oregon", "neighborhood": "", "exact_location_name": "Portland State University", "latitude": "45.51114992706051", "longitude": "-122.68302241627283"}, "revealed": {"country": "", "city": "", "neighborhood": "", "exact_location_name": ""}, "image_id": "1468815464"}
{"points": [[41.061118, -74.004753], [41.0586333, -74.0218967]], "confidences": [0.6666666666666667, 0.6666666666666667], "centroid": [41.05987596757469, -74.01332501191065], "distance": 1181.9139128447987, "ground_truth": {"country": "United States", "city": "Savannah", "neighborhood": "Historic District", "exact_location_name": "Forsyth Park", "latitude": "32.069988720515475", "longitude": "-81.09509461866166"}, "revealed": {"country": "", "city": "Pearl River, NY", "neighborhood": "", "exact_location_name": ""}, "image_id": "1051470473"}
{"distance": 999999999, "ground_truth": {"country": "Germany", "city": "Heidelberg", "neighborhood": "marketplace in the old town center", "exact_location_name": "Heiliggeistkirche", "latitude": "49.41142018096211", "longitude": "8.70415399376422"}, "revealed": {"country": "", "city": "", "neighborhood": "", "exact_location_name": ""}, "image_id": "2165939217"}
{"distance": 999999999, "ground_truth": {"country": "United States", "city": "Chicago, Illinois", "neighborhood": "Streeterville", "exact_location_name": "Columbus Drive", "latitude": "41.88830395060306", "longitude": "-87.61992513211088"}, "revealed": {"country": "", "city": "", "neighborhood": "", "exact_location_name": ""}, "image_id": "1284282124"}
{"distance": 999999999, "ground_truth": {"country": "United States", "city": "Mount Dora, Florida", "neighborhood": "downtown Mount Dora", "exact_location_name": "Piglet's Pantry-Dog Bakery", "latitude": "28.799957770572977", "longitude": "-81.64416079199925"}, "revealed": {"country": "", "city": "", "neighborhood": "", "exact_location_name": ""}, "image_id": "2339873833"}
{"distance": 999999999, "ground_truth": {"country": "United States", "city": "Concord", "neighborhood": "", "exact_location_name": "Charlotte Motor Speedway", "latitude": "35.35235389543156", "longitude": "-80.68559218629282"}, "revealed": {"country": "", "city": "", "neighborhood": "", "exact_location_name": ""}, "image_id": "497557876"}
{"distance": 999999999, "ground_truth": {"country": "South Africa", "city": "Cape Town", "neighborhood": "Oudekraal", "exact_location_name": "Table Mountain", "latitude": "-33.962144782326355", "longitude": "18.41164299063081"}, "revealed": {"country": "", "city": "", "neighborhood": "Lion's Head", "exact_location_name": ""}, "image_id": "1410049055"}
{"points": [[38.890146, -77.053068], [38.88946, -77.03783], [38.88987, -77.02278], [44.782678, -91.461058], [39.820841, -97.105432]], "confidences": [0.405, 0.405, 0.405, 0.36450000000000005, 0.36450000000000005], "centroid": [40.48151814909382, -83.31469418713306], "distance": 564.4460090779468, "ground_truth": {"country": "United States", "city": "Washington D.C.", "neighborhood": "National Mall", "exact_location_name": "Lincoln Memorial", "latitude": "38.888535", "longitude": "-77.049851"}, "revealed": {"country": "United States", "city": "Washington, D.C", "neighborhood": " National Mall", "exact_location_name": " Lincoln Memorial"}, "image_id": "1442253731"}
{"points": [[35.021041, 135.7556075]], "confidences": [1], "centroid": [35.021041, 135.7556075], "distance": 2.8554165216841074, "ground_truth": {"country": "Japan", "city": "Kyoto", "neighborhood": "Higashiyama Ward", "exact_location_name": "Kennin-Ji Temple", "latitude": "35.00022083203523", "longitude": "135.77396016340845"}, "revealed": {"country": "Japan", "city": "Kyoto", "neighborhood": "", "exact_location_name": ""}, "image_id": "544893559"}
{"distance": 999999999, "ground_truth": {"country": "United States", "city": "Hephzibah, Georgia", "neighborhood": "Town and Country Park", "exact_location_name": "Queensborough Bank", "latitude": "33.377446599717416", "longitude": "-82.07804918690739"}, "revealed": {"country": "", "city": "", "neighborhood": "", "exact_location_name": ""}, "image_id": "2297134341"}
{"distance": 999999999, "ground_truth": {"country": "United States", "city": "Intercourse", "neighborhood": "", "exact_location_name": "Kitchen Kettle Village", "latitude": "40.06338989637432", "longitude": "-76.0300498178759"}, "revealed": {"country": "", "city": "", "neighborhood": "", "exact_location_name": ""}, "image_id": "664661140"}
{"points": [[38.8950368, -77.0365427]], "confidences": [0.81], "centroid": [38.89503680000001, -77.03654270000001], "distance": 0.31304664457539927, "ground_truth": {"country": "United States", "city": "Washington, D.C.", "neighborhood": "Pennsylvania Avenue", "exact_location_name": "White House", "latitude": "38.89785161975393", "longitude": "-77.03647615919515"}, "revealed": {"country": "", "city": "Washington, D.C", "neighborhood": "", "exact_location_name": ""}, "image_id": "2177491345"}
{"points": [[51.5074456, -0.1277653], [51.5156177, -0.0919983]], "confidences": [0.25, 0.2025], "centroid": [51.511104072205114, -0.1117606598637886], "distance": 1.604031334677014, "ground_truth": {"country": "England", "city": "London", "neighborhood": "The Borough Market", "exact_location_name": "Furness Food Hut", "latitude": "51.505481", "longitude": "-0.090417"}, "revealed": {"country": "United Kingdom", "city": "London", "neighborhood": "", "exact_location_name": "Borough Market"}, "image_id": "1469215985"}
{"distance": 999999999, "ground_truth": {"country": "United States", "city": "Fort Worth, Texas", "neighborhood": "Fort Woth Stockyards Historical District", "exact_location_name": "Fort Worth Stockyards", "latitude": "32.789338509247976", "longitude": "-97.34634448667255"}, "revealed": {"country": "", "city": "", "neighborhood": "", "exact_location_name": ""}, "image_id": "204501676"}
{"distance": 999999999, "ground_truth": {"country": "India", "city": "Chennai", "neighborhood": "Meenambakkam", "exact_location_name": "Chennai International Airport", "latitude": "12.99154646010385", "longitude": "80.17050506722416"}, "revealed": {"country": "", "city": "", "neighborhood": "", "exact_location_name": ""}, "image_id": "2029815428"}
{"distance": 999999999, "ground_truth": {"country": "Cambodia", "city": "Siem Reap", "neighborhood": "Pub Street", "exact_location_name": "Pub Street", "latitude": "13.354951228911448", "longitude": "103.85515352051011"}, "revealed": {"country": "", "city": "", "neighborhood": "", "exact_location_name": ""}, "image_id": "789637777"}
{"distance": 999999999, "ground_truth": {"country": "United States", "city": "Scottsdale, Arizona", "neighborhood": "Old Town Scottsdale", "exact_location_name": "Bronze Horse Fountain By Bob Parks", "latitude": "33.498765006110204", "longitude": "-111.92889070298685"}, "revealed": {"country": "", "city": "", "neighborhood": "", "exact_location_name": ""}, "image_id": "1060147154"}
{"points": [[2.1942647, 102.2486651]], "confidences": [0.9], "centroid": [2.1942647, 102.2486651], "distance": 1.6087898734346213, "ground_truth": {"country": "Malaysia", "city": "Melaka", "neighborhood": "", "exact_location_name": "", "latitude": "2.208569976314419", "longitude": "102.24649838334206"}, "revealed": {"country": "Malaysia", "city": "Malacca ", "neighborhood": "", "exact_location_name": ""}, "image_id": "565945786"}
{"distance": 999999999, "ground_truth": {"country": "United States", "city": "Beaverton", "neighborhood": "Raleigh West", "exact_location_name": "Uwajimaya", "latitude": "45.48566257463172", "longitude": "-122.78516940871728"}, "revealed": {"country": "", "city": "", "neighborhood": "", "exact_location_name": ""}, "image_id": "1363820270"}
{"distance": 999999999, "ground_truth": {"country": "United States", "city": "Indianapolis", "neighborhood": "Mile Square", "exact_location_name": "Soldiers and Sailors Monument", "latitude": "39.76869430941807", "longitude": "-86.15783985544765"}, "revealed": {"country": "", "city": "", "neighborhood": "", "exact_location_name": ""}, "image_id": "662048146"}
{"distance": 999999999, "ground_truth": {"country": "Ukraine", "city": "Lviv", "neighborhood": "", "exact_location_name": "Rynok Square", "latitude": "49.841695032882775", "longitude": "24.034069504763494"}, "revealed": {"country": "", "city": "", "neighborhood": "", "exact_location_name": ""}, "image_id": "1447042130"}
{"distance": 999999999, "ground_truth": {"country": "United States", "city": "Stone Mountain, Georgia", "neighborhood": "Stone Mountain Park", "exact_location_name": "Confederate Memorial Carving", "latitude": "33.80880396477781", "longitude": "-84.14215974153754"}, "revealed": {"country": "", "city": "", "neighborhood": "", "exact_location_name": ""}, "image_id": "1173589825"}
{"distance": 999999999, "ground_truth": {"country": "United States", "city": "Oklahoma", "neighborhood": "Downtown", "exact_location_name": "Center of the Universe", "latitude": "36.157452559534114", "longitude": "-95.98857549210044"}, "revealed": {"country": "", "city": "", "neighborhood": "", "exact_location_name": ""}, "image_id": "2077110718"}
{"points": [[54.7023545, -3.2765753]], "confidences": [1], "centroid": [54.7023545, -3.2765753], "distance": 427.02991137727724, "ground_truth": {"country": "United Kingdom", "city": "Surrey", "neighborhood": "Leatherhead", "exact_location_name": "Sainsbury Supermarket", "latitude": "51.29568992059684", "longitude": "-0.3278187094161555"}, "revealed": {"country": "United Kingdom", "city": "", "neighborhood": "", "exact_location_name": ""}, "image_id": "2359976081"}
{"distance": 999999999, "ground_truth": {"country": "United States", "city": "Indianapolis Indiana", "neighborhood": "American Legion Mall", "exact_location_name": "Cenotaph Square", "latitude": "39.77730187152697", "longitude": "-86.15694351052159"}, "revealed": {"country": "", "city": "", "neighborhood": "", "exact_location_name": ""}, "image_id": "1773472766"}
{"distance": 999999999, "ground_truth": {"country": "Montenegro", "city": "Perast", "neighborhood": "Kotor", "exact_location_name": "Bay of Kotor and Church St Nicholas in Perast", "latitude": "42.487985491988326", "longitude": "18.695581511472195"}, "revealed": {"country": "", "city": "", "neighborhood": "", "exact_location_name": ""}, "image_id": "1922720348"}
{"distance": 999999999, "ground_truth": {"country": "United States", "city": "Seattle, Washington", "neighborhood": "Pioneer Square", "exact_location_name": "", "latitude": "47.6028366357076", "longitude": "-122.33079829132426"}, "revealed": {"country": "", "city": "", "neighborhood": "", "exact_location_name": ""}, "image_id": "491622043"}
{"points": [[39.7837304, -100.445882]], "confidences": [1], "centroid": [39.7837304, -100.445882], "distance": 1367.7453515565796, "ground_truth": {"country": "United States", "city": "Cincinatti", "neighborhood": "Over the Rhine District", "exact_location_name": "Findlay Market", "latitude": "39.115397526572536", "longitude": "-84.51895022024516"}, "revealed": {"country": "United States", "city": "", "neighborhood": "", "exact_location_name": ""}, "image_id": "663020035"}
{"distance": 999999999, "ground_truth": {"country": "Turkey", "city": "Istanbul", "neighborhood": "", "exact_location_name": "Yeni Cami Square", "latitude": "41.01664369581883", "longitude": "28.971433883416783"}, "revealed": {"country": "", "city": "", "neighborhood": "", "exact_location_name": ""}, "image_id": "541310632"}
{"distance": 999999999, "ground_truth": {"country": "England", "city": "London", "neighborhood": "Marylebone", "exact_location_name": "Nike Town", "latitude": "51.515695033609404", "longitude": "-0.14121962939073668"}, "revealed": {"country": "", "city": "", "neighborhood": "", "exact_location_name": ""}, "image_id": "1204284154"}
{"distance": 999999999, "ground_truth": {"country": "United States", "city": "Charlotte, North Carolina", "neighborhood": "NoDa District", "exact_location_name": "Neighborhood Theatre and Cultural Center", "latitude": "35.24775381902615", "longitude": "-80.80200572051176"}, "revealed": {"country": "", "city": "", "neighborhood": "", "exact_location_name": ""}, "image_id": "2272100811"}
{"distance": 999999999, "ground_truth": {"country": "United States", "city": "Las Vegas", "neighborhood": "Downtown (Fremont Street)", "exact_location_name": "Golden Gate Hotel & Casino", "latitude": "36.171371591505554", "longitude": "-115.14653419365563"}, "revealed": {"country": "", "city": "", "neighborhood": "", "exact_location_name": ""}, "image_id": "110083406"}
{"distance": 999999999, "ground_truth": {"country": "Colombia", "city": "Huila", "neighborhood": "San Austin Archeological Park", "exact_location_name": "", "latitude": "1.8858739125442041", "longitude": "-76.29365247377338"}, "revealed": {"country": "", "city": "", "neighborhood": "", "exact_location_name": ""}, "image_id": "759440740"}
{"distance": 999999999, "ground_truth": {"country": "Germany", "city": "Cologne", "neighborhood": "Koln", "exact_location_name": "Great St. Martin Church", "latitude": "50.93838403434613", "longitude": "6.962247553798016"}, "revealed": {"country": "", "city": "", "neighborhood": "", "exact_location_name": ""}, "image_id": "320512151"}
{"distance": 999999999, "ground_truth": {"country": "England", "city": "London", "neighborhood": "East London", "exact_location_name": "ExCel London Convention Center", "latitude": "51.51031808775388", "longitude": "0.03645170910893341"}, "revealed": {"country": "", "city": "", "neighborhood": "", "exact_location_name": ""}, "image_id": "198333455"}
{"distance": 999999999, "ground_truth": {"country": "England", "city": "London", "neighborhood": "Camden Market", "exact_location_name": "", "latitude": "51.541491663031344", "longitude": "-0.1465127243841857"}, "revealed": {"country": "", "city": "", "neighborhood": "", "exact_location_name": ""}, "image_id": "79403914"}
{"distance": 999999999, "ground_truth": {"country": "United States", "city": "Washington, DC", "neighborhood": "National Mall", "exact_location_name": "Smithsonian National Museum of Natural History", "latitude": "38.89144884348053", "longitude": "-77.02327771415487"}, "revealed": {"country": "", "city": "", "neighborhood": "", "exact_location_name": ""}, "image_id": "488066209"}
{"distance": 999999999, "ground_truth": {"country": "United States", "city": "Newburyport, Maine", "neighborhood": "Downtown Newburyport/", "exact_location_name": "Market Square Historic district", "latitude": "42.81129202180349", "longitude": "-70.86971792475772"}, "revealed": {"country": "", "city": "", "neighborhood": "", "exact_location_name": ""}, "image_id": "2336185157"}
{"distance": 999999999, "ground_truth": {"country": "United States", "city": "Tulsa, OK", "neighborhood": "Oral Roberts University", "exact_location_name": "Praying Hands", "latitude": "36.052028122754855", "longitude": "-95.95660339784759"}, "revealed": {"country": "United States", "city": "Tulsa, Oklahoma", "neighborhood": "Oral Roberts University (ORU)", "exact_location_name": "\"Praying Hands\""}, "image_id": "756555517"}
{"distance": 999999999, "ground_truth": {"country": "Saudi Arabia", "city": "Riyadh", "neighborhood": "Al Bathaa", "exact_location_name": "Al Thumairi Souq", "latitude": "24.635586636651244", "longitude": "46.72166965908523"}, "revealed": {"country": "", "city": "", "neighborhood": "", "exact_location_name": ""}, "image_id": "322146053"}
{"distance": 999999999, "ground_truth": {"country": "Sri Lanka", "city": "Colombo Sri Lanka", "neighborhood": "Pettah", "exact_location_name": "Pettah Market", "latitude": "6.9363295326972505", "longitude": "79.85036096806982"}, "revealed": {"country": "", "city": "", "neighborhood": "", "exact_location_name": ""}, "image_id": "756318343"}
{"distance": 999999999, "ground_truth": {"country": "United States", "city": "Queens, NY", "neighborhood": "Flushing", "exact_location_name": "Arthur Ashe Stadium", "latitude": "40.74963925218362", "longitude": "-73.84688942179932"}, "revealed": {"country": "", "city": "", "neighborhood": "", "exact_location_name": ""}, "image_id": "111793940"}
{"points": [[32.7751536, -79.9273335], [32.7762282, -79.9271927]], "confidences": [0.7290000000000001, 0.7290000000000001], "centroid": [32.77569090001969, -79.92726310042507], "distance": 0.019490174911111508, "ground_truth": {"country": "United States", "city": "Charleston, South Carolina", "neighborhood": "South of Broad", "exact_location_name": "Rainbow Row", "latitude": "32.775530789501005", "longitude": "-79.92734793245842"}, "revealed": {"country": "United States", "city": "Charleston, SC", "neighborhood": "", "exact_location_name": "Rainbow Row"}, "image_id": "576533023"}
{"points": [[48.2083537, 16.3725042]], "confidences": [0.25], "centroid": [48.2083537, 16.3725042], "distance": 0.9086464183509149, "ground_truth": {"country": "Austria", "city": "Vienna", "neighborhood": "Innere Stadt", "exact_location_name": "Burgtheater", "latitude": "48.209949", "longitude": "16.360478"}, "revealed": {"country": "Austria", "city": "Vienna", "neighborhood": "", "exact_location_name": "Burgtheater"}, "image_id": "567873295"}
{"points": [[39.2891836, -77.859581], [38.34982, -81.63262], [39.28562, -77.859094]], "confidences": [0.6666666666666667, 0.7692307692307693, 0.6666666666666667], "centroid": [38.95853089774632, -79.25118628268444], "distance": 125.75876101932992, "ground_truth": {"country": "United States", "city": "Charles Town, West Virginia", "neighborhood": "downtown", "exact_location_name": "Jefferson County Courthouse", "latitude": "39.29001367995356", "longitude": "-77.85733304369518"}, "revealed": {"country": "", "city": "Charles Town, WV", "neighborhood": "", "exact_location_name": ""}, "image_id": "1275445393"}
{"points": [[48.1951323, -97.131159], [59.9133301, 10.7389701], [59.97239745, 10.775729194051895], [43.8921855, -92.7385186], [27.587099, -80.3807842]], "confidences": [1, 1, 1, 1, 1], "centroid": [57.619004965140405, -63.858197101209186], "distance": 4078.658542582435, "ground_truth": {"country": "Norway", "city": "Oslo", "neighborhood": "", "exact_location_name": "Vestbredden", "latitude": "59.91874947164385", "longitude": "10.756348808871143"}, "revealed": {"country": "", "city": "Oslo", "neighborhood": "", "exact_location_name": ""}, "image_id": "2168318911"}
{"distance": 999999999, "ground_truth": {"country": "Malaysia", "city": "Kuala Lumpur", "neighborhood": "Batu Caves", "exact_location_name": "Arulmigu Murugan Statue", "latitude": "3.2373934748096516", "longitude": "101.68374400087853"}, "revealed": {"country": "", "city": "", "neighborhood": "", "exact_location_name": ""}, "image_id": "605485106"}
{"distance": 999999999, "ground_truth": {"country": "Rwanda", "city": "Kigali", "neighborhood": "Kiyovu", "exact_location_name": "Grand Pension Plaza", "latitude": "-1.946084", "longitude": "30.060417"}, "revealed": {"country": "", "city": "", "neighborhood": "", "exact_location_name": ""}, "image_id": "1191651109"}
{"distance": 999999999, "ground_truth": {"country": "United States", "city": "San Francisco", "neighborhood": "West portal", "exact_location_name": "West Portal Station", "latitude": "37.74178728648845", "longitude": "-122.46441294084781"}, "revealed": {"country": "", "city": "", "neighborhood": "", "exact_location_name": ""}, "image_id": "328249667"}
{"distance": 999999999, "ground_truth": {"country": "Spain", "city": "Salardu", "neighborhood": "", "exact_location_name": "Alberg Era Garona", "latitude": "42.70775702058611", "longitude": "0.905906479070353"}, "revealed": {"country": "", "city": "", "neighborhood": "", "exact_location_name": ""}, "image_id": "693149893"}
{"distance": 999999999, "ground_truth": {"country": "USA", "city": "Lynn", "neighborhood": "Downtown", "exact_location_name": "Jerusalem Discount Furniture store", "latitude": "42.463364448101785", "longitude": "-70.94975395446633"}, "revealed": {"country": "", "city": "", "neighborhood": "", "exact_location_name": ""}, "image_id": "1734723791"}
{"points": [[39.7837304, -100.445882]], "confidences": [1], "centroid": [39.7837304, -100.445882], "distance": 2199.702822722331, "ground_truth": {"country": "USA", "city": "New Jersey", "neighborhood": "Hightstown", "exact_location_name": "3 houses in (194 Stockton Street, part of the Stockton Street Historic District)", "latitude": "40.27115547606545", "longitude": "-74.52657381837449"}, "revealed": {"country": "United States", "city": "", "neighborhood": "", "exact_location_name": ""}, "image_id": "2436401151"}
{"distance": 999999999, "ground_truth": {"country": "United States", "city": "Smyrna, Georgia", "neighborhood": "Village Green", "exact_location_name": "Smyrna Market Village", "latitude": "33.883901505851355", "longitude": "-84.51543746755786"}, "revealed": {"country": "", "city": "", "neighborhood": "", "exact_location_name": ""}, "image_id": "2185222237"}
{"distance": 999999999, "ground_truth": {"country": "United States", "city": "Minneapolis, Minnesota", "neighborhood": "Uptown", "exact_location_name": "Granada Theare on Hennepin Ave", "latitude": "44.947632214048156", "longitude": "-93.29831865013618"}, "revealed": {"country": "", "city": "", "neighborhood": "", "exact_location_name": ""}, "image_id": "2072663324"}
{"points": [[26.363607, -80.129274], [42.476293, -83.242984], [-45.415998, 167.714361], [27.543341, -99.449964], [30.8178667, -97.6151877]], "confidences": [0.375, 0.25, 0.25, 0, 0], "centroid": [17.946976397400874, -100.94176428681443], "distance": 257.235440054467, "ground_truth": {"country": "Mexico", "city": "Mexico City", "neighborhood": "Villa Gustavo A. Madero", "exact_location_name": "Basilica of Our Lady Guadalupe", "latitude": "19.485022330945753", "longitude": "-99.11716609687292"}, "revealed": {"country": "", "city": "Papantla", "neighborhood": "Town Center", "exact_location_name": ""}, "image_id": "1232483185"}
{"distance": 999999999, "ground_truth": {"country": "Qatar", "city": "Ar-Rayyan", "neighborhood": "", "exact_location_name": "Carnegie Mellon University in Qatar", "latitude": "25.316506440657356", "longitude": "51.440224193097144"}, "revealed": {"country": "", "city": "", "neighborhood": "", "exact_location_name": ""}, "image_id": "2226061023"}
{"distance": 999999999, "ground_truth": {"country": "United States", "city": "Los Angeles", "neighborhood": "Hollywood", "exact_location_name": "In-N-Out Burger", "latitude": "34.09813588175476", "longitude": "-118.34160055954014"}, "revealed": {"country": "", "city": "", "neighborhood": "", "exact_location_name": ""}, "image_id": "1974837581"}
{"distance": 999999999, "ground_truth": {"country": "USA", "city": "Peabody", "neighborhood": "Downtown ", "exact_location_name": "Bavaro Liquors in Peabody", "latitude": "42.525135812927154", "longitude": "-70.9278981493677"}, "revealed": {"country": "", "city": "", "neighborhood": "", "exact_location_name": ""}, "image_id": "1864740115"}
{"points": [[47.3744489, 8.5410422]], "confidences": [0.25], "centroid": [47.37444889999999, 8.541042199999998], "distance": 9.763636099305478, "ground_truth": {"country": "Switzerland", "city": "Zurich", "neighborhood": "Kloten", "exact_location_name": "Zurich International Airport", "latitude": "47.461999874409535", "longitude": "8.550934819795282"}, "revealed": {"country": "Switzerland", "city": "Zurich", "neighborhood": "", "exact_location_name": "Zurich Airport"}, "image_id": "1364309540"}
{"points": [[40.4416941, -79.9900861], [40.450508, -79.936309], [38.019366, -121.882974], [33.7270797, -84.4017997], [48.62943, -97.17813]], "confidences": [0, 0, 0, 0, 0], "centroid": [41.37664700908055, -92.38855567488694], "distance": 1046.5682963965976, "ground_truth": {"country": "United States", "city": "Pittsburgh, Pennsylvaia", "neighborhood": "Strip Districut", "exact_location_name": "Penn Ave", "latitude": "40.45173941327653", "longitude": "-79.9831393557037"}, "revealed": {"country": "Pittsburgh", "city": "United States", "neighborhood": "", "exact_location_name": ""}, "image_id": "1130278979"}
{"distance": 999999999, "ground_truth": {"country": "United States", "city": "Portland, Oregon", "neighborhood": "Old Town", "exact_location_name": "Ankeny Alley", "latitude": "45.522819168887295", "longitude": "-122.6717824948279"}, "revealed": {"country": "", "city": "", "neighborhood": "", "exact_location_name": ""}, "image_id": "566864311"}
{"points": [[51.523851, -0.219298], [51.5412548, 0.0008261], [51.508464, -0.200342], [51.5092409, -0.1944375], [51.508552, -0.198739]], "confidences": [0.13636363636363635, 0, 0, 0, 0], "centroid": [51.52385099999999, -0.219298], "distance": 4.763604708830929, "ground_truth": {"country": "UK", "city": "London", "neighborhood": "Primrose Hill", "exact_location_name": "34 Chalcot Cres (Primrose colorful houses)", "latitude": "51.540449408758874", "longitude": "-0.15581065358854634"}, "revealed": {"country": "United Kingdom", "city": "London", "neighborhood": "West London", "exact_location_name": "Notting Hill"}, "image_id": "1358382899"}
{"distance": 999999999, "ground_truth": {"country": "Canada", "city": "Calgary", "neighborhood": "Springbank Hill", "exact_location_name": "69 Street SW Station", "latitude": "51.03772513880166", "longitude": "-114.18810283212233"}, "revealed": {"country": "", "city": "", "neighborhood": "", "exact_location_name": ""}, "image_id": "2084300719"}
{"distance": 999999999, "ground_truth": {"country": "Iceland", "city": "Reykjavik", "neighborhood": "Downtown", "exact_location_name": "Solfar", "latitude": "64.14768671743916", "longitude": "-21.92228460198849"}, "revealed": {"country": "", "city": "", "neighborhood": "", "exact_location_name": ""}, "image_id": "134140433"}
{"distance": 999999999, "ground_truth": {"country": "United States", "city": "Des Moines, Iowa", "neighborhood": "", "exact_location_name": "Pappajohn Sculpture Park", "latitude": "41.585561158197706", "longitude": "-93.63385863287972"}, "revealed": {"country": "", "city": "", "neighborhood": "", "exact_location_name": ""}, "image_id": "1265340310"}
{"distance": 999999999, "ground_truth": {"country": "United States", "city": "New York City", "neighborhood": "Brooklyn", "exact_location_name": "Dekalb Market Hall", "latitude": "40.691425", "longitude": "-73.982349"}, "revealed": {"country": "", "city": "", "neighborhood": "", "exact_location_name": ""}, "image_id": "2413650251"}
{"distance": 999999999, "ground_truth": {"country": "China", "city": "Chengdu, Sichaun", "neighborhood": "Chunxi Road District", "exact_location_name": "IFS Shopping mall", "latitude": "30.658908362642602", "longitude": "104.08802493959328"}, "revealed": {"country": "", "city": "", "neighborhood": "", "exact_location_name": ""}, "image_id": "1480610120"}
{"distance": 999999999, "ground_truth": {"country": "Pakistan", "city": "Bamboret", "neighborhood": "", "exact_location_name": "", "latitude": "35.69884163335919", "longitude": "71.69267085173499"}, "revealed": {"country": "", "city": "", "neighborhood": "", "exact_location_name": ""}, "image_id": "398161144"}
{"points": [[41.4672552, -87.0604487], [-21.2230369, -50.8666375], [-33.0458456, -71.6196749], [5.6153841, -75.6247028], [22.7686984, -103.5705022]], "confidences": [0.25, 0.25, 0.25, 0.25, 0.25], "centroid": [3.2446988043683143, -77.41009462839926], "distance": 4697.286883939131, "ground_truth": {"country": "Chile", "city": "Temuco", "neighborhood": "Poblacion Abraham Lincoln", "exact_location_name": "Las Quilas", "latitude": "-38.76573729639397", "longitude": "-72.60931256604965"}, "revealed": {"country": "", "city": "Valpara\u00edso", "neighborhood": "", "exact_location_name": "Plaza Sotomayor"}, "image_id": "355525922"}
{"distance": 999999999, "ground_truth": {"country": "Egypt", "city": "Cairo", "neighborhood": "Al-Darb Al-Ahmar", "exact_location_name": "", "latitude": "30.047540585800675", "longitude": "31.257226350116124"}, "revealed": {"country": "", "city": "", "neighborhood": "", "exact_location_name": ""}, "image_id": "1372480571"}
{"distance": 999999999, "ground_truth": {"country": "United States", "city": "Brooklyn, New York", "neighborhood": "East River shore", "exact_location_name": "", "latitude": "40.78069964811697", "longitude": "-73.9010033049778"}, "revealed": {"country": "", "city": "", "neighborhood": "", "exact_location_name": ""}, "image_id": "1829693546"}
{"distance": 999999999, "ground_truth": {"country": "United States", "city": "Winston-Salem, North Carolina", "neighborhood": "Downtown", "exact_location_name": "RAI Reynolds American Building", "latitude": "36.09988944201557", "longitude": "-80.24048180008296"}, "revealed": {"country": "", "city": "", "neighborhood": "", "exact_location_name": ""}, "image_id": "1067347025"}
{"distance": 999999999, "ground_truth": {"country": "United States", "city": "Tupelo, Missouri", "neighborhood": "Fairpark", "exact_location_name": "Elvis Presely Homecoming Statue", "latitude": "34.25746797417119", "longitude": "-88.69956396544416"}, "revealed": {"country": "", "city": "", "neighborhood": "", "exact_location_name": ""}, "image_id": "2286555435"}
{"distance": 999999999, "ground_truth": {"country": "Ethiopia", "city": "Lalibela", "neighborhood": "", "exact_location_name": "Church of St. George", "latitude": "12.03195142691595", "longitude": "39.04149527256039"}, "revealed": {"country": "", "city": "", "neighborhood": "", "exact_location_name": ""}, "image_id": "1045369714"}
{"distance": 999999999, "ground_truth": {"country": "South Africa", "city": "Garden Route", "neighborhood": "", "exact_location_name": "Grootrivier River", "latitude": "-33.73295797065058", "longitude": "21.058763420516446"}, "revealed": {"country": "", "city": "", "neighborhood": "", "exact_location_name": ""}, "image_id": "11046172"}
{"distance": 999999999, "ground_truth": {"country": "Japan", "city": "Osaka", "neighborhood": "Shinbaisashisuji", "exact_location_name": "Shinbaisashi-suji shopping street", "latitude": "34.67076058152382", "longitude": "135.5013977924861"}, "revealed": {"country": "", "city": "", "neighborhood": "", "exact_location_name": ""}, "image_id": "1315683644"}
{"points": [[43.8157679, 11.058440286928892], [40.8007667, 16.925291758660553], [42.427986250000004, 12.155037896828429], [42.7361506, 12.734240814350725], [45.291105, 10.269859329852942]], "confidences": [0, 0, 0, 0, 0], "centroid": [43.03796561850243, 12.679475915573603], "distance": 194.2256468041816, "ground_truth": {"country": "Italy", "city": "Bologna", "neighborhood": "Piazza Maggiore", "exact_location_name": "", "latitude": "44.493683496678536", "longitude": "11.342602641348531"}, "revealed": {"country": "", "city": "", "neighborhood": "", "exact_location_name": "Piazza XX Settembre"}, "image_id": "1891866886"}
{"distance": 999999999, "ground_truth": {"country": "United States", "city": "Berkeley", "neighborhood": "UC Berkeley", "exact_location_name": "Sproul Plaza", "latitude": "37.86944917216077", "longitude": "-122.25917202191299"}, "revealed": {"country": "", "city": "", "neighborhood": "", "exact_location_name": ""}, "image_id": "710426014"}
{"distance": 999999999, "ground_truth": {"country": "United States", "city": "Atlanta", "neighborhood": "Cenntennial Olympic Park", "exact_location_name": "", "latitude": "33.76050997255598", "longitude": "-84.3935588931029"}, "revealed": {"country": "", "city": "", "neighborhood": "", "exact_location_name": ""}, "image_id": "1665875377"}
{"points": [[48.4096986, -114.3366925], [48.409898, -114.336697]], "confidences": [0, 0], "centroid": [48.40979830000003, -114.33669474999559], "distance": 0.15963289889798887, "ground_truth": {"country": "United States", "city": "Whitefish, MT", "neighborhood": "", "exact_location_name": "", "latitude": "48.41090645444018", "longitude": "-114.33531980421952"}, "revealed": {"country": "", "city": "Whitefish, MT", "neighborhood": "", "exact_location_name": "Central Ave"}, "image_id": "1656675451"}
{"distance": 999999999, "ground_truth": {"country": "United States", "city": "San Jose, California", "neighborhood": "Alameda", "exact_location_name": "Rosicrucian Egyptian Museum", "latitude": "37.33369500193693", "longitude": "-121.92226709196456"}, "revealed": {"country": "", "city": "", "neighborhood": "", "exact_location_name": ""}, "image_id": "1770946409"}
{"distance": 999999999, "ground_truth": {"country": "Bulgaria", "city": "Sofia", "neighborhood": "", "exact_location_name": "Ivan Vazon Ivan Vazov National Theatre", "latitude": "42.69479201803716", "longitude": "23.326176461244838"}, "revealed": {"country": "", "city": "", "neighborhood": "", "exact_location_name": ""}, "image_id": "285063017"}
{"distance": 999999999, "ground_truth": {"country": "Indonesia", "city": "Jakarta", "neighborhood": "", "exact_location_name": "Gelora Bung Karno Stadium", "latitude": "-6.216680", "longitude": "106.802553"}, "revealed": {"country": "", "city": "", "neighborhood": "", "exact_location_name": ""}, "image_id": "2388748871"}
{"points": [[-22.9115445, -68.2010471], [-22.912639, -68.2025], [-22.9819424, -68.1831521], [-22.9116518, -68.2012903], [-22.8882857, -68.21899643603723]], "confidences": [0.3076923076923077, 0.5, 0.24, 0.3076923076923077, 0.15384615384615385], "centroid": [-22.920753085050706, -68.20056378666432], "distance": 68.00125566862953, "ground_truth": {"country": "Chile", "city": "San Pedro de Atacama", "neighborhood": "El Tatio geyser field, Atacama Desert", "exact_location_name": "", "latitude": "-22.33421474200629", "longitude": "-68.01301916979122"}, "revealed": {"country": "", "city": "San Pedro de Atacama", "neighborhood": "Atacama Desert", "exact_location_name": ""}, "image_id": "1249940389"}
{"distance": 999999999, "ground_truth": {"country": "Norway", "city": "Oslo", "neighborhood": "Karl Johans street", "exact_location_name": "Carlings Karl Johans gate 16", "latitude": "59.912548625916656", "longitude": "10.743544581261604"}, "revealed": {"country": "", "city": "", "neighborhood": "", "exact_location_name": ""}, "image_id": "671930818"}
{"distance": 999999999, "ground_truth": {"country": "United States", "city": "Cumberland Island, Georgia", "neighborhood": "", "exact_location_name": "Cumberland Island Beach", "latitude": "30.852412442774007", "longitude": "-81.43381434156261"}, "revealed": {"country": "", "city": "", "neighborhood": "", "exact_location_name": ""}, "image_id": "601709189"}
{"distance": 999999999, "ground_truth": {"country": "Indonesia", "city": "Ubud, Bali, Indonesia", "neighborhood": "Ubud", "exact_location_name": "", "latitude": "-8.506891333597364", "longitude": "115.26234849626324"}, "revealed": {"country": "", "city": "", "neighborhood": "", "exact_location_name": ""}, "image_id": "388032190"}
{"distance": 999999999, "ground_truth": {"country": "United States", "city": "Cheyenne, Wyoming", "neighborhood": "", "exact_location_name": "The Wrangler", "latitude": "41.1327603566396", "longitude": "-104.81502971457614"}, "revealed": {"country": "", "city": "", "neighborhood": "", "exact_location_name": ""}, "image_id": "1218773557"}
{"points": [[64.145981, -21.9422367]], "confidences": [0.25], "centroid": [64.145981, -21.9422367], "distance": 0.6307848236600321, "ground_truth": {"country": "Iceland", "city": "Reykjavik", "neighborhood": "Downtown", "exact_location_name": "Skolavordustigur", "latitude": "64.14465162866017", "longitude": "-21.929590643065296"}, "revealed": {"country": "Iceland", "city": "Reykjavik", "neighborhood": "", "exact_location_name": "Sk\u00f3lav\u00f6r\u00f0ust\u00edgur"}, "image_id": "2196592813"}
{"distance": 999999999, "ground_truth": {"country": "France", "city": "Paris", "neighborhood": "", "exact_location_name": "Palais Garnier", "latitude": "48.871795", "longitude": "2.330884"}, "revealed": {"country": "", "city": "", "neighborhood": "", "exact_location_name": ""}, "image_id": "2325733915"}
{"distance": 999999999, "ground_truth": {"country": "India", "city": "Pune, Maharashtra", "neighborhood": "", "exact_location_name": "Khanduji Baba Chowk", "latitude": "18.514997860133146", "longitude": "73.84465096786477"}, "revealed": {"country": "", "city": "", "neighborhood": "", "exact_location_name": ""}, "image_id": "1134296366"}
{"distance": 999999999, "ground_truth": {"country": "Italy", "city": "Florence", "neighborhood": "", "exact_location_name": "Galleria dell'Accademia ", "latitude": "43.776857", "longitude": "11.258685"}, "revealed": {"country": "", "city": "", "neighborhood": "", "exact_location_name": ""}, "image_id": "188883485"}
{"distance": 999999999, "ground_truth": {"country": "United States", "city": "Milwaukee, Wisconsin", "neighborhood": "Junaeu Town", "exact_location_name": "Grohmann Museum", "latitude": "43.04426693318443", "longitude": "-87.90619961747156"}, "revealed": {"country": "", "city": "", "neighborhood": "", "exact_location_name": ""}, "image_id": "1449388364"}
{"distance": 999999999, "ground_truth": {"country": "United States", "city": "Boise, Idaho", "neighborhood": "downtown", "exact_location_name": "Idanha Hotel/Apartments", "latitude": "45.310376947681725", "longitude": "-104.86761837907017"}, "revealed": {"country": "", "city": "", "neighborhood": "", "exact_location_name": ""}, "image_id": "2071135850"}
{"distance": 999999999, "ground_truth": {"country": "United States", "city": "Boise, Idaho", "neighborhood": "Downtown", "exact_location_name": "Boise Holiday Parade", "latitude": "43.61799872753769", "longitude": "-116.20111739970572"}, "revealed": {"country": "", "city": "", "neighborhood": "", "exact_location_name": ""}, "image_id": "121160980"}
{"distance": 999999999, "ground_truth": {"country": "United States", "city": "Moline, Illinois", "neighborhood": "", "exact_location_name": "Vibrant Arena", "latitude": "41.50780215375539", "longitude": "-90.51966434424091"}, "revealed": {"country": "", "city": "", "neighborhood": "", "exact_location_name": ""}, "image_id": "2388768463"}
{"points": [[39.7837304, -100.445882]], "confidences": [1], "centroid": [39.7837304, -100.445882], "distance": 1347.1412520821802, "ground_truth": {"country": "United States", "city": "Las Vegas, Nevada", "neighborhood": "Downtown", "exact_location_name": "Life is Beautiful 2013", "latitude": "36.16948277371085", "longitude": "-115.13764714820577"}, "revealed": {"country": "United States", "city": "", "neighborhood": "", "exact_location_name": ""}, "image_id": "175561349"}
{"distance": 999999999, "ground_truth": {"country": "United States", "city": "Los Angeles, California", "neighborhood": "Hollywood", "exact_location_name": "corner of Santa Monica Blvd and Highland Ave", "latitude": "34.09071395329263", "longitude": "-118.33856462436417"}, "revealed": {"country": "", "city": "", "neighborhood": "", "exact_location_name": ""}, "image_id": "1594318222"}
{"points": [[40.7596198, -111.886797]], "confidences": [0.25], "centroid": [40.7596198, -111.886797], "distance": 1.9037677917086695, "ground_truth": {"country": "United States", "city": "Salt Lake City", "neighborhood": "Capitol Hill", "exact_location_name": "Utah State Capitol", "latitude": "40.776696591622226", "longitude": "-111.88842040116732"}, "revealed": {"country": "United States", "city": "Salt Lake City", "neighborhood": "", "exact_location_name": "Utah State Capitol "}, "image_id": "106242719"}
{"distance": 999999999, "ground_truth": {"country": "United States", "city": "Austin, Texas", "neighborhood": "The Drag, West Campus", "exact_location_name": "University Co-op", "latitude": "30.286349765354085", "longitude": "-97.74145906374503"}, "revealed": {"country": "", "city": "", "neighborhood": "", "exact_location_name": ""}, "image_id": "293055971"}
{"distance": 999999999, "ground_truth": {"country": "Canada", "city": "Quebec City", "neighborhood": "Old Quebec", "exact_location_name": "Fairmont Le Ch\u00e2teau Frontenac", "latitude": "46.81233168229795", "longitude": "-71.20412010155974"}, "revealed": {"country": "", "city": "", "neighborhood": "", "exact_location_name": ""}, "image_id": "659739742"}
{"distance": 999999999, "ground_truth": {"country": "Turkey", "city": "Instabul", "neighborhood": "Beyo\u011flu", "exact_location_name": "575 Ataturk Cultural Center", "latitude": "41.036582", "longitude": "28.987564"}, "revealed": {"country": "", "city": "", "neighborhood": "", "exact_location_name": ""}, "image_id": "2239170157"}
{"points": [[53.0758196, 8.8071646], [51.0814232, 7.1730371], [50.724998, 10.0034611], [51.5033219, 7.9576538], [47.7204189, 9.7629462]], "confidences": [0.25, 0.25, 0.25, 0.25, 0.25], "centroid": [50.826306052836685, 8.75806354936754], "distance": 250.2005370644056, "ground_truth": {"country": "Germany", "city": "Bremen", "neighborhood": "Bremen-Mitte", "exact_location_name": "Town Musicians of Bremen", "latitude": "53.07620731210177", "longitude": "8.807509575928004"}, "revealed": {"country": "Germany", "city": "Bremen", "neighborhood": "", "exact_location_name": "The Bremen Town Musicians"}, "image_id": "268585355"}
{"points": [[40.7192728, -73.9982152], [40.7540533, -73.9798883], [40.7205186, -73.9948474]], "confidences": [0.9, 0.15, 0], "centroid": [40.72424162006194, -73.99559824447569], "distance": 0.651452640638236, "ground_truth": {"country": "USA", "city": "New York", "neighborhood": "Lower Manhattan", "exact_location_name": "La Nonna", "latitude": "40.71857951995781", "longitude": "-73.99758376852763"}, "revealed": {"country": "United States", "city": "New York City", "neighborhood": "Little Italy", "exact_location_name": ""}, "image_id": "202283887"}
{"distance": 999999999, "ground_truth": {"country": "united States", "city": "Little Rock, Arkansas", "neighborhood": "downtown Little Rock", "exact_location_name": "Scott Street and Markham intersection", "latitude": "34.747929748429634", "longitude": "-92.26913542823705"}, "revealed": {"country": "", "city": "", "neighborhood": "", "exact_location_name": ""}, "image_id": "2278354457"}
{"distance": 999999999, "ground_truth": {"country": "Qatar", "city": "Doha", "neighborhood": "", "exact_location_name": "", "latitude": "25.301249", "longitude": "51.530790"}, "revealed": {"country": "", "city": "", "neighborhood": "", "exact_location_name": ""}, "image_id": "647157601"}
{"distance": 999999999, "ground_truth": {"country": "United States", "city": "Montgomery, Alabama", "neighborhood": "Downtown", "exact_location_name": "Rosa Parks Bus Stop", "latitude": "32.37683892268648", "longitude": "-86.31113862505407"}, "revealed": {"country": "", "city": "", "neighborhood": "", "exact_location_name": ""}, "image_id": "575737282"}
{"distance": 999999999, "ground_truth": {"country": "United States", "city": "Austin", "neighborhood": "Downtown", "exact_location_name": "Downtown Station", "latitude": "30.265454567693553", "longitude": "-97.73837558716401"}, "revealed": {"country": "", "city": "", "neighborhood": "", "exact_location_name": ""}, "image_id": "2266394031"}
{"distance": 999999999, "ground_truth": {"country": "USA", "city": "New Orleans", "neighborhood": "French Quarter", "exact_location_name": "The LaBranche House", "latitude": "29.95826569603796", "longitude": "-90.06461777452749"}, "revealed": {"country": "", "city": "", "neighborhood": "", "exact_location_name": ""}, "image_id": "206700019"}
{"distance": 999999999, "ground_truth": {"country": "Spain", "city": "Barcelona", "neighborhood": "La Rambla", "exact_location_name": "Mosaic de Joan Mir\u00f3", "latitude": "41.38118123438424", "longitude": "2.1732783487645513"}, "revealed": {"country": "", "city": "", "neighborhood": "", "exact_location_name": ""}, "image_id": "420076906"}
{"distance": 999999999, "ground_truth": {"country": "United States", "city": "Memphis, Tennessee", "neighborhood": "Downtown", "exact_location_name": "Blues City General Store", "latitude": "35.14034906581136", "longitude": "-90.05311632485493"}, "revealed": {"country": "", "city": "", "neighborhood": "", "exact_location_name": ""}, "image_id": "2362014953"}
{"distance": 999999999, "ground_truth": {"country": "Belarus", "city": "Minsk", "neighborhood": "", "exact_location_name": "Belarusian State Circus", "latitude": "53.90437616119533", "longitude": "27.56742310445691"}, "revealed": {"country": "", "city": "", "neighborhood": "", "exact_location_name": ""}, "image_id": "693156553"}
{"distance": 999999999, "ground_truth": {"country": "South Korea", "city": "Busan", "neighborhood": "", "exact_location_name": "Jagalchi Market", "latitude": "35.096842098907274", "longitude": "129.0317559361311"}, "revealed": {"country": "", "city": "", "neighborhood": "", "exact_location_name": ""}, "image_id": "1070820602"}
{"distance": 999999999, "ground_truth": {"country": "Australia", "city": "Sydney", "neighborhood": "Dawes Point", "exact_location_name": "Sydney Harbor Bridge", "latitude": "-33.85479435861035", "longitude": "151.21001374681776"}, "revealed": {"country": "", "city": "", "neighborhood": "", "exact_location_name": ""}, "image_id": "151962215"}
{"distance": 999999999, "ground_truth": {"country": "Egypt", "city": "Alexandria", "neighborhood": "Al Gomrok", "exact_location_name": "Abu al-Abbas al-Mursi Mosque", "latitude": "31.205379433611117", "longitude": "29.882531669568035"}, "revealed": {"country": "", "city": "", "neighborhood": "", "exact_location_name": ""}, "image_id": "76815307"}
{"distance": 999999999, "ground_truth": {"country": "Spain", "city": "Barcelona", "neighborhood": "El Ravel", "exact_location_name": "La Boqueria", "latitude": "41.38208143737302", "longitude": "2.169619554854664"}, "revealed": {"country": "", "city": "", "neighborhood": "", "exact_location_name": ""}, "image_id": "1620904735"}
{"points": [[49.841952, 24.0315921], [47.861591, 33.551559], [47.8922869, 31.091311]], "confidences": [0.25, 0.25, 0.25], "centroid": [48.60162275588614, 29.632066111480068], "distance": 429.731280046639, "ground_truth": {"country": "Ukraine", "city": "Lviv", "neighborhood": "Halytskyi District", "exact_location_name": "Lviv National Opera", "latitude": "49.843361501540485", "longitude": "24.026781251724895"}, "revealed": {"country": "Ukraine", "city": "Lviv", "neighborhood": "", "exact_location_name": "Theatre of Opera and Ballet"}, "image_id": "2324760445"}
{"distance": 999999999, "ground_truth": {"country": "United States", "city": "Detroit, Michigan", "neighborhood": "downtown Detroit", "exact_location_name": "The Spirit of Detroit Statue", "latitude": "42.32966293911797", "longitude": "-83.04251034476522"}, "revealed": {"country": "", "city": "", "neighborhood": "", "exact_location_name": ""}, "image_id": "344180768"}
{"distance": 999999999, "ground_truth": {"country": "USA", "city": "Washington", "neighborhood": "Seattle", "exact_location_name": "The Central Library", "latitude": "47.6080727495057", "longitude": "-122.33245025051417"}, "revealed": {"country": "", "city": "", "neighborhood": "", "exact_location_name": ""}, "image_id": "1115548985"}
{"points": [[43.03525745, -87.9080904937326], [43.039526949999996, -87.92237909773803], [43.03538, -87.908108], [43.039, -87.92242], [43.0357872, -87.90812634759426]], "confidences": [0.058823529411764705, 0.058823529411764705, 0.058823529411764705, 0.058823529411764705, 0.052941176470588235], "centroid": [43.03701508825723, -87.91394086874675], "distance": 0.8590202969952397, "ground_truth": {"country": "United States", "city": "Milwaukee, Wisconsin", "neighborhood": "Historic third ward", "exact_location_name": "the Unsung Hero Mural and the Institute of Beauty and Wellness Milwaukee", "latitude": "43.035318334215034", "longitude": "-87.90362963393757"}, "revealed": {"country": "United States", "city": "Milwaukee, WI", "neighborhood": "Historic Third Ward", "exact_location_name": "Milwaukee Public Market "}, "image_id": "2062879721"}
{"distance": 999999999, "ground_truth": {"country": "Australia", "city": "Sydney", "neighborhood": "Petersham", "exact_location_name": "", "latitude": "-33.89892297171779", "longitude": "151.15400988083545"}, "revealed": {"country": "", "city": "", "neighborhood": "Petersham", "exact_location_name": ""}, "image_id": "1786356578"}
{"distance": 999999999, "ground_truth": {"country": "USA", "city": "Indianapolis", "neighborhood": "", "exact_location_name": "Indianapolis Motor Speedway", "latitude": "39.80074301025579", "longitude": "-86.23063257827134"}, "revealed": {"country": "", "city": "", "neighborhood": "", "exact_location_name": ""}, "image_id": "2159237403"}
{"points": [[52.381585, -0.006181], [51.914024, -1.625635], [52.088396, -1.03465], [51.572196, -1.159578], [52.559577, 0.386868]], "confidences": [0, 0, 0, 0, 0], "centroid": [52.105553105550776, -0.6928372169619724], "distance": 76.78975132731065, "ground_truth": {"country": "United Kingdom", "city": "London", "neighborhood": "St James's", "exact_location_name": "His Majesty's Theatre", "latitude": "51.50835160411651", "longitude": "-0.13196268448061457"}, "revealed": {"country": "United Kingdom", "city": "London", "neighborhood": "West End", "exact_location_name": "Her Majesty's Theatre"}, "image_id": "774519871"}
{"points": [[30.36722, -97.896883], [30.367536, -97.896692], [30.367683, -97.896816], [30.367692, -97.896987], [30.367723, -97.897173]], "confidences": [0.6000000000000001, 0.6000000000000001, 0.6000000000000001, 0.6000000000000001, 0.6000000000000001], "centroid": [30.367570800100637, -97.89691019988572], "distance": 946.9197949237447, "ground_truth": {"country": "United States", "city": "Mobile, AL", "neighborhood": "Mobile Bay", "exact_location_name": "USS Alabama Battleship Memorial Park", "latitude": "30.681609", "longitude": "-88.014509"}, "revealed": {"country": "", "city": "", "neighborhood": "Battleship Memorial Park", "exact_location_name": "USS Alabama (BB-60) in Battleship Memorial Park"}, "image_id": "553279441"}
{"distance": 999999999, "ground_truth": {"country": "United States", "city": "Boston, MA", "neighborhood": "Cambridge", "exact_location_name": "The Alchemist", "latitude": "42.359101", "longitude": "-71.094032"}, "revealed": {"country": "", "city": "", "neighborhood": "", "exact_location_name": ""}, "image_id": "225048664"}
{"distance": 999999999, "ground_truth": {"country": "Georgia", "city": "Tbilisi", "neighborhood": "Tbilisi Reservoir", "exact_location_name": "", "latitude": "41.769163094985096", "longitude": "44.81619518392281"}, "revealed": {"country": "", "city": "", "neighborhood": "", "exact_location_name": ""}, "image_id": "2410655125"}
{"distance": 999999999, "ground_truth": {"country": "Spain", "city": "Seville", "neighborhood": "", "exact_location_name": "Plaza de Espana", "latitude": "37.37713722908525", "longitude": "-5.986807684062309"}, "revealed": {"country": "", "city": "", "neighborhood": "", "exact_location_name": ""}, "image_id": "1124332706"}
{"distance": 999999999, "ground_truth": {"country": "Canada", "city": "Vancouver", "neighborhood": "Stanley Park", "exact_location_name": "", "latitude": "49.299889605492304", "longitude": "-123.11994801594912"}, "revealed": {"country": "", "city": "", "neighborhood": "", "exact_location_name": ""}, "image_id": "33660427"}
{"distance": 999999999, "ground_truth": {"country": "Peru", "city": "Cusco", "neighborhood": "", "exact_location_name": "", "latitude": "-13.531007195388952", "longitude": "-71.96809235348792"}, "revealed": {"country": "", "city": "", "neighborhood": "", "exact_location_name": ""}, "image_id": "1471324196"}
{"distance": 999999999, "ground_truth": {"country": "India", "city": "Varanasi", "neighborhood": "", "exact_location_name": "Varanasi River", "latitude": "25.308167", "longitude": "83.017072"}, "revealed": {"country": "", "city": "", "neighborhood": "", "exact_location_name": ""}, "image_id": "1095976736"}
{"points": [[39.124479, -105.695602], [33.935092, -117.89256], [32.890273, -111.698228], [42.520665, -113.808259], [35.092482, -106.487621]], "confidences": [0.229635, 0.05785714285714286, 0.11571428571428571, 0.05785714285714286, 0.04050000000000001], "centroid": [37.23305095067673, -109.55400453462721], "distance": 269.0443951947535, "ground_truth": {"country": "United States", "city": "Grand Canyon Village", "neighborhood": "Grand Canyon South Rim", "exact_location_name": "Pima Point", "latitude": "36.07186245812908", "longitude": "-112.2001090649224"}, "revealed": {"country": "United States", "city": "Arizona", "neighborhood": "Grand Canyon National Park", "exact_location_name": "Pima Point"}, "image_id": "1398210416"}
{"distance": 999999999, "ground_truth": {"country": "USA", "city": "Fitchburg", "neighborhood": "Downtown", "exact_location_name": "Metro PCS store", "latitude": "42.58208909736071", "longitude": "-71.79675385379201"}, "revealed": {"country": "", "city": "", "neighborhood": "", "exact_location_name": ""}, "image_id": "1867849882"}
{"distance": 999999999, "ground_truth": {"country": "United States", "city": "Columbus. Ohio", "neighborhood": "Riverfront", "exact_location_name": "Columbus Arts Festival", "latitude": "39.96573312335034", "longitude": "-82.995546973147"}, "revealed": {"country": "", "city": "", "neighborhood": "", "exact_location_name": ""}, "image_id": "2170087287"}
{"distance": 999999999, "ground_truth": {"country": "United States", "city": "Atlanta, Georgia", "neighborhood": "Midtown", "exact_location_name": "Ponce City Market", "latitude": "33.773021", "longitude": "-84.367011"}, "revealed": {"country": "", "city": "", "neighborhood": "", "exact_location_name": ""}, "image_id": "1302463213"}
{"distance": 999999999, "ground_truth": {"country": "Spain", "city": "Madrid", "neighborhood": "Barajas", "exact_location_name": "Aeropuerto Station", "latitude": "40.466718", "longitude": "-3.575602"}, "revealed": {"country": "", "city": "", "neighborhood": "", "exact_location_name": ""}, "image_id": "139671994"}
{"distance": 999999999, "ground_truth": {"country": "United States", "city": "Philadelphia, Pennsylvania", "neighborhood": "", "exact_location_name": "Citezens Bank Park", "latitude": "39.90645178812417", "longitude": "-75.16460696983384"}, "revealed": {"country": "", "city": "", "neighborhood": "", "exact_location_name": ""}, "image_id": "39976828"}
{"points": [[39.762278, -83.104025], [40.312525, -83.208971]], "confidences": [0, 0], "centroid": [40.037413334045276, -83.15628629378044], "distance": 15.940002119736096, "ground_truth": {"country": "United States", "city": "Columbus, Ohio", "neighborhood": "Scotio Mile", "exact_location_name": "Scotio Mile Fountain", "latitude": "39.95720065453376", "longitude": "-83.00119761260535"}, "revealed": {"country": "United States", "city": "Columbus, OH", "neighborhood": "Scioto Mile", "exact_location_name": "Scioto Mile Fountain"}, "image_id": "171357965"}
{"distance": 999999999, "ground_truth": {"country": "Myanmar", "city": "Nyaunghswe", "neighborhood": "", "exact_location_name": "", "latitude": "20.66496694548716", "longitude": "96.93109863899316"}, "revealed": {"country": "", "city": "", "neighborhood": "", "exact_location_name": ""}, "image_id": "1918589936"}
{"distance": 999999999, "ground_truth": {"country": "United States", "city": "Omaha", "neighborhood": "Jefferson Square", "exact_location_name": "", "latitude": "41.26571336003046", "longitude": "-95.9463540167625"}, "revealed": {"country": "", "city": "", "neighborhood": "", "exact_location_name": ""}, "image_id": "2335827871"}
{"points": [[33.6923788, -117.88195021958566], [44.633963, -85.767348], [44.633911, -85.767344], [42.247781, -83.552285], [39.998226, -83.032367]], "confidences": [0.6666666666666667, 0, 0, 0, 0], "centroid": [33.6923788, -117.88195021958568], "distance": 0.10187884323550535, "ground_truth": {"country": "United States", "city": "Santa Ana", "neighborhood": "South Coast Metro", "exact_location_name": "Orange County Museum of Art", "latitude": "33.691726129943746", "longitude": "-117.88117738476946"}, "revealed": {"country": "United States", "city": "Costa Mesa, California", "neighborhood": "", "exact_location_name": "Segerstrom Center for the Arts"}, "image_id": "1775006123"}
{"distance": 999999999, "ground_truth": {"country": "Hungary", "city": "Budapest", "neighborhood": "Lipotvaros", "exact_location_name": "Hungarian Parliament Building", "latitude": "47.50729490641566", "longitude": "19.04603377747046"}, "revealed": {"country": "", "city": "", "neighborhood": "", "exact_location_name": ""}, "image_id": "1409561642"}
{"points": [[42.897243, -122.133766], [42.94109, -122.13282], [42.976107, -122.292952], [42.849576, -122.000145], [42.89707, -122.13447]], "confidences": [0.9, 0.5, 0.5, 0.45, 0.45], "centroid": [42.911499074498195, -122.14061019879871], "distance": 4.97890376529036, "ground_truth": {"country": "United States", "city": "Klamath County", "neighborhood": "Crater Lake National Park", "exact_location_name": "Crater Lake", "latitude": "42.94453489913865", "longitude": "-122.09933092017575"}, "revealed": {"country": "", "city": "", "neighborhood": "Crater Lake National Park", "exact_location_name": "Mount Mazama"}, "image_id": "1760706104"}
{"distance": 999999999, "ground_truth": {"country": "Estonia", "city": "Tallinn", "neighborhood": "Pelguranna", "exact_location_name": "", "latitude": "59.447635", "longitude": "24.690867"}, "revealed": {"country": "", "city": "", "neighborhood": "", "exact_location_name": ""}, "image_id": "621665024"}
{"distance": 999999999, "ground_truth": {"country": "United States", "city": "Flushing", "neighborhood": "", "exact_location_name": "Billie Jean King National Tennis Center", "latitude": "40.750562563443644", "longitude": "-73.845139750536"}, "revealed": {"country": "", "city": "", "neighborhood": "", "exact_location_name": ""}, "image_id": "311106650"}
{"points": [[40.7127281, -74.0060152]], "confidences": [0.9], "centroid": [40.7127281, -74.0060152], "distance": 3.684611664163802, "ground_truth": {"country": "United States", "city": "New York City", "neighborhood": "Brooklyn", "exact_location_name": "", "latitude": "40.686551312708666", "longitude": "-73.97921589950724"}, "revealed": {"country": "United States", "city": " New York City", "neighborhood": "", "exact_location_name": ""}, "image_id": "515719687"}
{"points": [[36.5748441, 139.2394179]], "confidences": [1], "centroid": [36.5748441, 139.2394179], "distance": 398.70033622714897, "ground_truth": {"country": "Japan", "city": "Osaka", "neighborhood": "Dotonbori", "exact_location_name": "", "latitude": "34.67008373452486", "longitude": "135.50160281581213"}, "revealed": {"country": "Japan", "city": "", "neighborhood": "", "exact_location_name": ""}, "image_id": "786283990"}
{"distance": 999999999, "ground_truth": {"country": "United States", "city": "Boston", "neighborhood": "Blackstone Block Historic District", "exact_location_name": "Green Dragon Tavern", "latitude": "42.36147379133542", "longitude": "-71.05695326336678"}, "revealed": {"country": "", "city": "", "neighborhood": "", "exact_location_name": ""}, "image_id": "1579628164"}
{"points": [[46.2257358, 14.6118936], [40.272903, 20.5896465], [46.1072714, 15.0691535]], "confidences": [0.25, 0.25, 0.25], "centroid": [44.235912403720725, 16.882054644830152], "distance": 275.8782485110207, "ground_truth": {"country": "Slovenia", "city": "Maribor", "neighborhood": "", "exact_location_name": "Kino Partizan", "latitude": "46.560864", "longitude": "15.648245"}, "revealed": {"country": "", "city": "Kamnik ", "neighborhood": "", "exact_location_name": "Kino Partizan"}, "image_id": "1371875441"}
{"distance": 999999999, "ground_truth": {"country": "United States", "city": "Albuquerque, New Mexico", "neighborhood": "downtown", "exact_location_name": "Kimo Theatre", "latitude": "35.08540508320828", "longitude": "-106.65086593759594"}, "revealed": {"country": "", "city": "", "neighborhood": "Downtown", "exact_location_name": ""}, "image_id": "1094446721"}
{"distance": 999999999, "ground_truth": {"country": "United States", "city": "Tacoma, Washington", "neighborhood": "", "exact_location_name": "Museum of Glass", "latitude": "47.24579167413875", "longitude": "-122.43148703843477"}, "revealed": {"country": "", "city": "", "neighborhood": "", "exact_location_name": ""}, "image_id": "2035800122"}
{"distance": 999999999, "ground_truth": {"country": "United States", "city": "Fargo, North Dakota", "neighborhood": "downtown", "exact_location_name": "Broadway Sqaure", "latitude": "46.878312307272324", "longitude": "-96.78687360928922"}, "revealed": {"country": "", "city": "", "neighborhood": "", "exact_location_name": ""},